CUSTOM.date [local],CUSTOM.updateTime [local],OSD.flyTime,OSD.flyTime [s],OSD.latitude,OSD.longitude,OSD.height [ft],OSD.heightMax [ft],OSD.vpsHeight [ft],OSD.altitude [ft],OSD.mileage [ft],OSD.hSpeed [MPH],OSD.hSpeedMax [MPH],OSD.xSpeed [MPH],OSD.xSpeedMax [MPH],OSD.ySpeed [MPH],OSD.ySpeedMax [MPH],OSD.zSpeed [MPH],OSD.zSpeedMax [MPH],OSD.pitch,OSD.roll,OSD.yaw,OSD.yaw [360],OSD.directionOfTravel,OSD.flycState,OSD.flycCommand,OSD.flightAction,OSD.gpsNum,OSD.gpsLevel,OSD.isGPSUsed,OSD.nonGPSCause,OSD.droneType,OSD.isSwaveWork,OSD.waveError,OSD.goHomeStatus,OSD.batteryType,OSD.ctrlDevice,OSD.isOnGround,OSD.isMotorOn,OSD.isMotorBlocked,OSD.motorStartFailedCause,OSD.motorFailReason,OSD.isImuPreheated,OSD.imuInitFailReason,OSD.isAcceletorOverRange,OSD.isBarometerDeadInAir,OSD.isCompassError,OSD.isGoHomeHeightModified,OSD.canIOCWork,OSD.isNotEnoughForce,OSD.isOutOfLimit,OSD.isPropellerCatapult,OSD.isVibrating,OSD.isVisionUsed,OSD.voltageWarning,GIMBAL.mode,GIMBAL.pitch,GIMBAL.roll,GIMBAL.yaw,GIMBAL.yaw [360],GIMBAL.isPitchAtLimit,GIMBAL.isRollAtLimit,GIMBAL.isYawAtLimit,GIMBAL.isStuck,CAMERA.isPhoto,CAMERA.isVideo,CAMERA.filename,CAMERA.sdCardIsInserted,CAMERA.sdCardState,RC.downlinkSignal,RC.uplinkSignal,RC.aileron,RC.elevator,RC.throttle,RC.rudder,RC.mode,RC.goHomeDepressed,RC.recordDepressed,RC.shutterDepressed,RC.playbackDepressed,RC.wheelDepressed,RC.wheelOffset,RC.custom1Depressed,RC.custom2Depressed,RC.custom3Depressed,RC.custom4Depressed,BATTERY.chargeLevel,BATTERY.currentPV [V],BATTERY.currentCapacity [mAh],BATTERY.fullCapacity [mAh],BATTERY.voltage [V],BATTERY.isCellVoltageEstimated,BATTERY.cellVoltage1 [V],BATTERY.cellVoltage2 [V],BATTERY.maxCellVoltageDeviation,BATTERY.isCellVoltageDeviationHigh,BATTERY.isVoltageLow,BATTERY.current [A],BATTERY.temperature [F],BATTERY.minTemperature [F],BATTERY.maxTemperature [F],BATTERY.usefulTime [s],BATTERY.goHomeTime [s],BATTERY.landTime [s],BATTERY.goHomeBattery,BATTERY.landBattery,BATTERY.safeFlyRadius,BATTERY.volumeConsume,BATTERY.status,BATTERY.goHomeStatus,BATTERY.goHomeCountdown,BATTERY.lowWarning,BATTERY.lowWarningGoHome,BATTERY.seriousLowWarning,BATTERY.seriousLowWarningLanding,BATTERY.timesCharged,MC.failSafeAction,MC.isObstacleAvoidanceEnabled,MC.isCollisionAvoidanceEnabled,MC.isRthObstacleAvoidanceEnabled,MC.isBraking,MC.isAvoidingObstacle,MC.isAvoidingActiveObstacle,MC.isAscentLimitedByObstacle,MC.isLandingConfirmationNeeded,MC.atLowAltitudeLimit,MC.atDistanceLimit,MC.atAirportAltitudeLimit,MC.atAirportBoundary,HOME.latitude,HOME.longitude,HOME.distance [ft],HOME.height [ft],HOME.heightLimit [ft],HOME.isHomeRecord,HOME.goHomeMode,HOME.aircraftHeadDirection,HOME.isDynamicHomePointEnabled,HOME.isReachedLimitDistance,HOME.isReachedLimitHeight,HOME.isCompassCalibrating,HOME.compassCalibrationState,HOME.isMultipleFlightModeEnabled,HOME.isBeginnerMode,HOME.isIOCEnabled,HOME.iocMode,HOME.goHomeHeight [ft],HOME.courseLockAngle,HOME.forceLandingHeight [ft],HOME.dataRecorderFileIndex,WEATHER.windDirection,WEATHER.windRelativeDirection,WEATHER.windSpeed [MPH],WEATHER.maxWindSpeed [MPH],WEATHER.windStrength,WEATHER.isFacingWind,WEATHER.isFlyingIntoWind,RECOVER.appType,RECOVER.appVersion,RECOVER.aircraftName,,,,,DETAILS.totalTime [s],DETAILS.totalDistance [ft],DETAILS.maxHeight [ft],DETAILS.maxHorizontalSpeed [MPH],DETAILS.maxVerticalSpeed [MPH],DETAILS.photoNum,DETAILS.videoTime [s],DETAILS.aircraftName,,,,,DETAILS.appName,DETAILS.appType,DETAILS.appVersion,,,,,,,SERIAL.battery2,APPGPS.latitude,APPGPS.longitude,APPGPS.accuracy,APP.tip,APP.warning
4/13/2026,29:12.9,0m 0.0s,0,50.57727881,-111.885662,0,0,0.3,2467,0,0,0,0,0,0,0,0,0,-1.7,-0.3,29.7,29.7,,Starting Motors,Auto Fly,Takeoff (RC Assisted),24,5,TRUE,,Mini 2,FALSE,FALSE,,Smart,RC,TRUE,TRUE,FALSE,,,TRUE,,FALSE,FALSE,FALSE,FALSE,FALSE,FALSE,FALSE,FALSE,FALSE,FALSE,0,Follow Yaw,0,0,-5.5,354.5,FALSE,FALSE,FALSE,FALSE,FALSE,FALSE,,TRUE,Normal,,100,1684,364,364,364,0,FALSE,FALSE,FALSE,FALSE,FALSE,0,FALSE,FALSE,FALSE,FALSE,59,7.824,1166,1978,7.824,TRUE,3.912,3.912,,FALSE,FALSE,0.616,113.5,113.5,113.5,,,,,,,,,Idle,,,,,,24,Go Home,FALSE,FALSE,FALSE,FALSE,FALSE,FALSE,FALSE,FALSE,FALSE,FALSE,FALSE,FALSE,,,,,,FALSE,,,FALSE,FALSE,FALSE,FALSE,,FALSE,FALSE,FALSE,,,,,,,,,,Calm,FALSE,FALSE,,1.20.0,DJI Mini 2,,,,,236.4,6,223,36.811084,12.079476,0,0,DJI Mini 2,,,,,DJI Fly,,1.20.0,,,,,,,,,,,Flight mode changed to Starting Motors.,
4/13/2026,29:13.0,0m 0.1s,0.1,50.57727887,-111.885662,0,0,0.3,2467,0,0,0,0,0,0,0,0,0,-1.7,-0.3,29.7,29.7,,Starting Motors,Auto Fly,Takeoff (RC Assisted),24,5,TRUE,,Mini 2,FALSE,FALSE,,Smart,RC,TRUE,TRUE,FALSE,,,TRUE,,FALSE,FALSE,FALSE,FALSE,FALSE,FALSE,FALSE,FALSE,FALSE,FALSE,0,Follow Yaw,0,0,-5.5,354.5,FALSE,FALSE,FALSE,FALSE,FALSE,FALSE,,TRUE,Normal,,100,1684,364,364,364,0,FALSE,FALSE,FALSE,FALSE,FALSE,0,FALSE,FALSE,FALSE,FALSE,59,7.824,1166,1978,7.824,TRUE,3.912,3.912,,FALSE,FALSE,0.616,113.5,113.5,113.5,,,,,,,,,Idle,,,,,,24,Go Home,FALSE,FALSE,FALSE,FALSE,FALSE,FALSE,FALSE,FALSE,FALSE,FALSE,FALSE,FALSE,,,,,,FALSE,,,FALSE,FALSE,FALSE,FALSE,,FALSE,FALSE,FALSE,,,,,,,,,,Calm,FALSE,FALSE,,1.20.0,DJI Mini 2,,,,,236.4,6,223,36.811084,12.079476,0,0,DJI Mini 2,,,,,DJI Fly,,1.20.0,,,,,,,,,,,,
4/13/2026,29:13.1,0m 0.2s,0.2,50.57727889,-111.885662,0,0,0.3,2467,0,0,0,0,0,0,0,0,0,-1.7,-0.2,29.7,29.7,,Starting Motors,Auto Fly,Takeoff (RC Assisted),24,5,TRUE,,Mini 2,TRUE,FALSE,,Smart,RC,TRUE,TRUE,FALSE,,,TRUE,,FALSE,FALSE,FALSE,FALSE,FALSE,FALSE,FALSE,FALSE,FALSE,FALSE,0,Follow Yaw,0,0,-5.5,354.5,FALSE,FALSE,FALSE,FALSE,FALSE,FALSE,,TRUE,Normal,,100,1684,364,364,364,0,FALSE,FALSE,FALSE,FALSE,FALSE,0,FALSE,FALSE,FALSE,FALSE,59,7.824,1166,1978,7.824,TRUE,3.912,3.912,,FALSE,FALSE,0.616,113.5,113.5,113.5,,,,,,,,,Idle,,,,,,24,Go Home,FALSE,FALSE,FALSE,FALSE,FALSE,FALSE,FALSE,FALSE,FALSE,FALSE,FALSE,FALSE,,,,,,FALSE,,,FALSE,FALSE,FALSE,FALSE,,FALSE,FALSE,FALSE,,,,,,,,,,Calm,FALSE,FALSE,,1.20.0,DJI Mini 2,,,,,236.4,6,223,36.811084,12.079476,0,0,DJI Mini 2,,,,,DJI Fly,,1.20.0,,,,,,,,,,,,
4/13/2026,29:13.2,0m 0.3s,0.3,50.57727895,-111.885662,0,0,0.3,2467,0,0,0,0,0,0,0,0,0,-1.7,-0.3,29.7,29.7,,Starting Motors,Auto Fly,Takeoff (RC Assisted),24,5,TRUE,,Mini 2,TRUE,FALSE,,Smart,RC,TRUE,TRUE,FALSE,,,TRUE,,FALSE,FALSE,FALSE,FALSE,FALSE,FALSE,FALSE,FALSE,FALSE,FALSE,0,Follow Yaw,0,0,-5.5,354.5,FALSE,FALSE,FALSE,FALSE,FALSE,FALSE,,TRUE,Normal,,100,1684,364,364,364,0,FALSE,FALSE,FALSE,FALSE,FALSE,0,FALSE,FALSE,FALSE,FALSE,59,7.824,1166,1978,7.809,TRUE,3.905,3.905,,FALSE,FALSE,0.616,113.5,113.5,113.5,,17,,,5,1937.4,484.36,,Idle,,20,,10,,24,Go Home,FALSE,FALSE,FALSE,FALSE,FALSE,FALSE,FALSE,FALSE,FALSE,FALSE,FALSE,FALSE,50.57725029,-111.8856853,11.7,2725.4,393.7,TRUE,1,1,FALSE,FALSE,FALSE,FALSE,,TRUE,FALSE,FALSE,Course Lock,393.7,86.5,16.4,7,,,,,Calm,FALSE,FALSE,,1.20.0,DJI Mini 2,,,,,236.4,6,223,36.811084,12.079476,0,0,DJI Mini 2,,,,,DJI Fly,,1.20.0,,,,,,,,,,,Data Recorder File Index is 7.; Set Return to Home (RTH) altitude to 120 m (394 ft).; Set maximum flight altitude to 120 m (394 ft).,
4/13/2026,29:13.3,0m 0.4s,0.4,50.57727895,-111.885662,0,0,0.3,2467,0,0,0,0,0,0,0,0,0,-1.7,-0.3,29.7,29.7,,Starting Motors,Auto Fly,Takeoff (RC Assisted),24,5,TRUE,,Mini 2,TRUE,FALSE,,Smart,RC,TRUE,TRUE,FALSE,,,TRUE,,FALSE,FALSE,FALSE,FALSE,FALSE,FALSE,FALSE,FALSE,FALSE,FALSE,0,Follow Yaw,0,0,-5.5,354.5,FALSE,FALSE,FALSE,FALSE,FALSE,FALSE,,TRUE,Normal,100,100,1684,364,364,364,0,FALSE,FALSE,FALSE,FALSE,FALSE,0,FALSE,FALSE,FALSE,FALSE,59,7.824,1166,1978,7.809,TRUE,3.905,3.905,,FALSE,FALSE,0.616,113.5,113.5,113.5,,17,,,5,1937.4,484.36,,Idle,,20,,10,,24,Go Home,FALSE,FALSE,FALSE,FALSE,FALSE,FALSE,FALSE,FALSE,FALSE,FALSE,FALSE,FALSE,50.57725029,-111.8856853,11.7,2725.4,393.7,TRUE,1,1,FALSE,FALSE,FALSE,FALSE,,TRUE,FALSE,FALSE,Course Lock,393.7,86.5,16.4,7,,,,,Calm,FALSE,FALSE,,1.20.0,DJI Mini 2,,,,,236.4,6,223,36.811084,12.079476,0,0,DJI Mini 2,,,,,DJI Fly,,1.20.0,,,,,,,,,,,,
4/13/2026,29:13.4,0m 0.5s,0.5,50.57727895,-111.885662,0,0,0.3,2467,0,0,0,0,0,0,0,0,0,-1.7,-0.3,29.7,29.7,,Starting Motors,Auto Fly,Takeoff (RC Assisted),24,5,TRUE,,Mini 2,TRUE,FALSE,,Smart,RC,TRUE,TRUE,FALSE,,,TRUE,,FALSE,FALSE,FALSE,FALSE,FALSE,FALSE,FALSE,FALSE,FALSE,FALSE,0,Follow Yaw,0,0,-5.5,354.5,FALSE,FALSE,FALSE,FALSE,FALSE,FALSE,,TRUE,Normal,100,100,1684,364,364,364,0,FALSE,FALSE,FALSE,FALSE,FALSE,0,FALSE,FALSE,FALSE,FALSE,59,7.824,1166,1978,7.809,TRUE,3.905,3.905,,FALSE,FALSE,0.616,113.5,113.5,113.5,,17,,,5,1937.4,484.36,,Idle,,20,,10,,24,Go Home,FALSE,FALSE,FALSE,FALSE,FALSE,FALSE,FALSE,FALSE,FALSE,FALSE,FALSE,FALSE,50.57725029,-111.8856853,11.7,2725.4,393.7,TRUE,1,1,FALSE,FALSE,FALSE,FALSE,,TRUE,FALSE,FALSE,Course Lock,393.7,86.5,16.4,7,,,,,Calm,FALSE,FALSE,,1.20.0,DJI Mini 2,,,,,236.4,6,223,36.811084,12.079476,0,0,DJI Mini 2,,,,,DJI Fly,,1.20.0,,,,,,,,,,,,
4/13/2026,29:13.5,0m 0.6s,0.6,50.577279,-111.885662,0,0,0.3,2467,0,0,0,0,0,0,0,0,0,-1.7,-0.3,29.7,29.7,,Starting Motors,Auto Fly,Takeoff (RC Assisted),24,5,TRUE,,Mini 2,TRUE,FALSE,,Smart,RC,TRUE,TRUE,FALSE,,,TRUE,,FALSE,FALSE,FALSE,FALSE,FALSE,FALSE,FALSE,FALSE,FALSE,FALSE,0,Follow Yaw,0,0,-5.5,354.5,FALSE,FALSE,FALSE,FALSE,FALSE,FALSE,,TRUE,Normal,100,100,1024,1024,1262,364,0,FALSE,FALSE,FALSE,FALSE,FALSE,0,FALSE,FALSE,FALSE,FALSE,59,7.824,1166,1978,7.809,TRUE,3.905,3.905,,FALSE,FALSE,0.616,113.5,113.5,113.5,,17,,,5,1937.4,484.36,,Idle,,20,,10,,24,Go Home,FALSE,FALSE,FALSE,FALSE,FALSE,FALSE,FALSE,FALSE,FALSE,FALSE,FALSE,FALSE,50.57725029,-111.8856853,11.7,2725.4,393.7,TRUE,1,1,FALSE,FALSE,FALSE,FALSE,,TRUE,FALSE,FALSE,Course Lock,393.7,86.5,16.4,7,,,,,Calm,FALSE,FALSE,,1.20.0,DJI Mini 2,,,,,236.4,6,223,36.811084,12.079476,0,0,DJI Mini 2,,,,,DJI Fly,,1.20.0,,,,,,,,,,,,
4/13/2026,29:13.6,0m 0.7s,0.7,50.57727907,-111.885662,0,0,0.3,2467,0,0,0,0,0,0,0,0,0,-1.7,-0.3,29.7,29.7,,Starting Motors,Auto Fly,Takeoff (RC Assisted),24,5,TRUE,,Mini 2,TRUE,FALSE,,Smart,RC,TRUE,TRUE,FALSE,,,TRUE,,FALSE,FALSE,FALSE,FALSE,FALSE,FALSE,FALSE,FALSE,FALSE,FALSE,0,Follow Yaw,0,0,-5.5,354.5,FALSE,FALSE,FALSE,FALSE,FALSE,FALSE,,TRUE,Normal,100,100,1024,1024,1684,364,0,FALSE,FALSE,FALSE,FALSE,FALSE,0,FALSE,FALSE,FALSE,FALSE,59,7.804,1166,1978,7.809,FALSE,3.907,3.897,0.01,FALSE,FALSE,0.731,113.5,113.5,113.5,,17,,,5,1937.4,484.36,,Idle,,20,,10,,24,Go Home,FALSE,FALSE,FALSE,FALSE,FALSE,FALSE,FALSE,FALSE,FALSE,FALSE,FALSE,FALSE,50.57725029,-111.8856853,11.8,2725.4,393.7,TRUE,1,1,FALSE,FALSE,FALSE,FALSE,,TRUE,FALSE,FALSE,Course Lock,393.7,86.5,16.4,7,,,,,Calm,FALSE,FALSE,,1.20.0,DJI Mini 2,,,,,236.4,6,223,36.811084,12.079476,0,0,DJI Mini 2,,,,,DJI Fly,,1.20.0,,,,,,,,,,,,
4/13/2026,29:13.7,0m 0.8s,0.8,50.57727909,-111.8856619,0,0,0.3,2467,0,0,0,0,0,0,0,0,0,-1.7,-0.2,29.7,29.7,,Starting Motors,Auto Fly,Takeoff (RC Assisted),24,5,TRUE,,Mini 2,TRUE,FALSE,,Smart,RC,TRUE,TRUE,FALSE,,,TRUE,,FALSE,FALSE,FALSE,FALSE,FALSE,FALSE,FALSE,FALSE,FALSE,FALSE,0,Follow Yaw,0,0,-5.5,354.5,FALSE,FALSE,FALSE,FALSE,FALSE,FALSE,,TRUE,Normal,100,100,1024,1024,1684,364,0,FALSE,FALSE,FALSE,FALSE,FALSE,0,FALSE,FALSE,FALSE,FALSE,59,7.804,1166,1978,7.809,FALSE,3.907,3.897,0.01,FALSE,FALSE,0.731,113.5,113.5,113.5,,17,,,5,1937.4,484.36,,Idle,,20,,10,,24,Go Home,FALSE,FALSE,FALSE,FALSE,FALSE,FALSE,FALSE,FALSE,FALSE,FALSE,FALSE,FALSE,50.57725029,-111.8856853,11.8,2725.4,393.7,TRUE,1,1,FALSE,FALSE,FALSE,FALSE,,TRUE,FALSE,FALSE,Course Lock,393.7,86.5,16.4,7,,,,,Calm,FALSE,FALSE,,1.20.0,DJI Mini 2,,,,,236.4,6,223,36.811084,12.079476,0,0,DJI Mini 2,,,,,DJI Fly,,1.20.0,,,,,,,,,,,,
4/13/2026,29:13.8,0m 0.9s,0.9,50.5772791,-111.8856619,0,0,0.3,2467,0.1,0,0,0,0,0,0,0,0,-1.7,-0.3,29.7,29.7,,Starting Motors,Auto Fly,Takeoff (RC Assisted),24,5,TRUE,,Mini 2,TRUE,FALSE,,Smart,RC,TRUE,TRUE,FALSE,,,TRUE,,FALSE,FALSE,FALSE,FALSE,FALSE,FALSE,FALSE,FALSE,FALSE,FALSE,0,Follow Yaw,0,0,-5.5,354.5,FALSE,FALSE,FALSE,FALSE,FALSE,FALSE,,TRUE,Normal,100,100,1024,1024,1684,364,0,FALSE,FALSE,FALSE,FALSE,FALSE,0,FALSE,FALSE,FALSE,FALSE,59,7.804,1166,1978,7.809,FALSE,3.907,3.897,0.01,FALSE,FALSE,0.731,113.5,113.5,113.5,,17,,,5,1937.4,484.36,,Idle,,20,,10,,24,Go Home,FALSE,FALSE,FALSE,FALSE,FALSE,FALSE,FALSE,FALSE,FALSE,FALSE,FALSE,FALSE,50.57725029,-111.8856853,11.8,2725.4,393.7,TRUE,1,1,FALSE,FALSE,FALSE,FALSE,,TRUE,FALSE,FALSE,Course Lock,393.7,86.5,16.4,7,,,,,Calm,FALSE,FALSE,,1.20.0,DJI Mini 2,,,,,236.4,6,223,36.811084,12.079476,0,0,DJI Mini 2,,,,,DJI Fly,,1.20.0,,,,,,,,,,,,
4/13/2026,29:13.9,0m 1.0s,1,50.5772791,-111.8856619,0,0,0.3,2467,0.1,0,0,0,0,0,0,0,0,-1.7,-0.2,29.7,29.7,,Starting Motors,Auto Fly,Takeoff (RC Assisted),24,5,TRUE,,Mini 2,TRUE,FALSE,,Smart,RC,TRUE,TRUE,FALSE,,,TRUE,,FALSE,FALSE,FALSE,FALSE,FALSE,FALSE,FALSE,FALSE,FALSE,FALSE,0,Follow Yaw,0,0,-5.5,354.5,FALSE,FALSE,FALSE,FALSE,FALSE,FALSE,,TRUE,Normal,100,100,1024,1024,1684,364,0,FALSE,FALSE,FALSE,FALSE,FALSE,0,FALSE,FALSE,FALSE,FALSE,59,7.804,1166,1978,7.809,FALSE,3.907,3.897,0.01,FALSE,FALSE,0.731,113.5,113.5,113.5,,17,,,5,1937.4,484.36,,Idle,,20,,10,,24,Go Home,FALSE,FALSE,FALSE,FALSE,FALSE,FALSE,FALSE,FALSE,FALSE,FALSE,FALSE,FALSE,50.57725029,-111.8856853,11.8,2725.4,393.7,TRUE,1,1,FALSE,FALSE,FALSE,FALSE,,TRUE,FALSE,FALSE,Course Lock,393.7,86.5,16.4,7,,,,,Calm,FALSE,FALSE,,1.20.0,DJI Mini 2,,,,,236.4,6,223,36.811084,12.079476,0,0,DJI Mini 2,,,,,DJI Fly,,1.20.0,,,,,,,,,,,,
4/13/2026,29:14.0,0m 1.1s,1.1,50.57727902,-111.8856618,0,0,0.3,2467,0.1,0,0,0,0,0,0,0,0,-1.6,-0.3,29.7,29.7,,Manual Takeoff,Auto Fly,Takeoff (RC Assisted),24,5,TRUE,,Mini 2,TRUE,FALSE,,Smart,RC,TRUE,TRUE,FALSE,,,TRUE,,FALSE,FALSE,FALSE,FALSE,FALSE,FALSE,FALSE,FALSE,FALSE,FALSE,0,Follow Yaw,0,0,-5.5,354.5,FALSE,FALSE,FALSE,FALSE,FALSE,FALSE,,TRUE,Normal,100,100,1024,1024,1684,364,0,FALSE,FALSE,FALSE,FALSE,FALSE,0,FALSE,FALSE,FALSE,FALSE,59,7.804,1166,1978,7.809,FALSE,3.907,3.897,0.01,FALSE,FALSE,0.731,113.5,113.5,113.5,,17,,,5,1937.4,484.36,,Idle,,20,,10,,24,Go Home,FALSE,FALSE,FALSE,FALSE,FALSE,FALSE,FALSE,FALSE,FALSE,FALSE,FALSE,FALSE,50.57725029,-111.8856853,11.8,2725.4,393.7,TRUE,1,1,FALSE,FALSE,FALSE,FALSE,,TRUE,FALSE,FALSE,Course Lock,393.7,86.5,16.4,7,,,,,Calm,FALSE,FALSE,,1.20.0,DJI Mini 2,,,,,236.4,6,223,36.811084,12.079476,0,0,DJI Mini 2,,,,,DJI Fly,,1.20.0,,,,,,,,,,,Flight mode changed to Manual Takeoff.,
4/13/2026,29:14.1,0m 1.2s,1.2,50.57727907,-111.8856618,0,0,0.3,2467,0.1,0,0,0,0,0,0,0,0,-1.7,-0.3,29.7,29.7,,Manual Takeoff,Auto Fly,Takeoff (RC Assisted),24,5,TRUE,,Mini 2,TRUE,FALSE,,Smart,RC,TRUE,TRUE,FALSE,,,TRUE,,FALSE,FALSE,FALSE,FALSE,FALSE,FALSE,FALSE,FALSE,FALSE,FALSE,0,Follow Yaw,0,0,-5.5,354.5,FALSE,FALSE,FALSE,FALSE,FALSE,FALSE,,TRUE,Normal,100,100,1024,1024,1684,364,0,FALSE,FALSE,FALSE,FALSE,FALSE,0,FALSE,FALSE,FALSE,FALSE,59,7.804,1166,1978,7.809,FALSE,3.907,3.897,0.01,FALSE,FALSE,0.731,113.5,113.5,113.5,,17,,,5,1937.4,484.36,,Idle,,20,,10,,24,Go Home,FALSE,FALSE,FALSE,FALSE,FALSE,FALSE,FALSE,FALSE,FALSE,FALSE,FALSE,FALSE,50.57725029,-111.8856853,11.8,2725.4,393.7,TRUE,1,1,FALSE,FALSE,FALSE,FALSE,,TRUE,FALSE,FALSE,Course Lock,393.7,86.5,16.4,7,,,,,Calm,FALSE,FALSE,,1.20.0,DJI Mini 2,,,,,236.4,6,223,36.811084,12.079476,0,0,DJI Mini 2,,,,,DJI Fly,,1.20.0,,,,,,,,,,,,
4/13/2026,29:14.2,0m 1.3s,1.3,50.57727911,-111.8856618,0,0,0.3,2467,0.1,0,0,0,0,0,0,0,0,-1.6,-0.3,29.6,29.6,,Manual Takeoff,Auto Fly,Takeoff (RC Assisted),24,5,TRUE,,Mini 2,TRUE,FALSE,,Smart,RC,TRUE,TRUE,FALSE,,,TRUE,,FALSE,FALSE,FALSE,FALSE,FALSE,FALSE,FALSE,FALSE,FALSE,FALSE,0,Follow Yaw,0,0,-5.5,354.5,FALSE,FALSE,FALSE,FALSE,FALSE,FALSE,,TRUE,Normal,100,100,1024,1024,1684,364,0,FALSE,FALSE,FALSE,FALSE,FALSE,0,FALSE,FALSE,FALSE,FALSE,59,7.804,1166,1978,7.822,FALSE,3.907,3.897,0.01,FALSE,FALSE,0.731,113.5,113.5,113.5,,17,,,5,2048.5,512.12,,Idle,,20,,10,,24,Go Home,FALSE,FALSE,FALSE,FALSE,FALSE,FALSE,FALSE,FALSE,FALSE,FALSE,FALSE,FALSE,50.57725029,-111.8856853,11.8,2725.4,393.7,TRUE,1,1,FALSE,FALSE,FALSE,FALSE,,TRUE,FALSE,FALSE,Course Lock,393.7,86.5,16.4,7,,,,,Calm,FALSE,FALSE,,1.20.0,DJI Mini 2,,,,,236.4,6,223,36.811084,12.079476,0,0,DJI Mini 2,,,,,DJI Fly,,1.20.0,,,,,,,,,,,,
4/13/2026,29:14.3,0m 1.4s,1.4,50.57727912,-111.8856618,0,0,0.3,2467,0.1,0,0,0,0,0,0,0,0,-1.6,-0.3,29.5,29.5,,Manual Takeoff,Auto Fly,Takeoff (RC Assisted),24,5,TRUE,,Mini 2,TRUE,FALSE,,Smart,RC,TRUE,TRUE,FALSE,,,TRUE,,FALSE,FALSE,FALSE,FALSE,FALSE,FALSE,FALSE,FALSE,FALSE,FALSE,0,Follow Yaw,0,0,-5.6,354.4,FALSE,FALSE,FALSE,FALSE,FALSE,FALSE,,TRUE,Normal,100,100,1024,1024,1684,364,0,FALSE,FALSE,FALSE,FALSE,FALSE,0,FALSE,FALSE,FALSE,FALSE,59,7.804,1166,1978,7.822,FALSE,3.907,3.897,0.01,FALSE,FALSE,0.731,113.5,113.5,113.5,,17,,,5,2048.5,512.12,,Idle,,20,,10,,24,Go Home,FALSE,FALSE,FALSE,FALSE,FALSE,FALSE,FALSE,FALSE,FALSE,FALSE,FALSE,FALSE,50.57725029,-111.8856853,11.8,2725.4,393.7,TRUE,1,1,FALSE,FALSE,FALSE,FALSE,,TRUE,FALSE,FALSE,Course Lock,393.7,86.5,16.4,7,,,,,Calm,FALSE,FALSE,,1.20.0,DJI Mini 2,,,,,236.4,6,223,36.811084,12.079476,0,0,DJI Mini 2,,,,,DJI Fly,,1.20.0,,,,,,,,,,,,
4/13/2026,29:14.4,0m 1.5s,1.5,50.57727916,-111.8856618,0,0,0.3,2467,0.1,0,0,0,0,0,0,0,0,-1.7,-0.2,29.1,29.1,,Manual Takeoff,Auto Fly,Takeoff (RC Assisted),24,5,TRUE,,Mini 2,TRUE,FALSE,,Smart,RC,TRUE,TRUE,FALSE,,,TRUE,,FALSE,FALSE,FALSE,FALSE,FALSE,FALSE,FALSE,FALSE,FALSE,FALSE,0,Follow Yaw,0,0,-5.8,354.2,FALSE,FALSE,FALSE,FALSE,FALSE,FALSE,,TRUE,Normal,100,100,1024,1024,1684,364,0,FALSE,FALSE,FALSE,FALSE,FALSE,0,FALSE,FALSE,FALSE,FALSE,59,7.804,1166,1978,7.822,FALSE,3.907,3.897,0.01,FALSE,FALSE,0.731,113.5,113.5,113.5,,17,,,5,2048.5,512.12,,Idle,,20,,10,,24,Go Home,FALSE,FALSE,FALSE,FALSE,FALSE,FALSE,FALSE,FALSE,FALSE,FALSE,FALSE,FALSE,50.57725029,-111.8856853,11.8,2725.4,393.7,TRUE,1,1,FALSE,FALSE,FALSE,FALSE,,TRUE,FALSE,FALSE,Course Lock,393.7,86.5,16.4,7,,,,,Calm,FALSE,FALSE,,1.20.0,DJI Mini 2,,,,,236.4,6,223,36.811084,12.079476,0,0,DJI Mini 2,,,,,DJI Fly,,1.20.0,,,,,,,,,,,,
4/13/2026,29:14.5,0m 1.6s,1.6,50.57727915,-111.8856618,0,0,0.3,2467,0.1,0,0,0,0,0,0,0,0,-1.3,-0.5,28.1,28.1,,Manual Takeoff,Auto Fly,Takeoff (RC Assisted),24,5,TRUE,,Mini 2,TRUE,FALSE,,Smart,RC,TRUE,TRUE,FALSE,,,TRUE,,FALSE,FALSE,FALSE,FALSE,FALSE,FALSE,FALSE,FALSE,FALSE,FALSE,0,Follow Yaw,0,0,-6.5,353.5,FALSE,FALSE,FALSE,FALSE,FALSE,FALSE,,TRUE,Normal,100,100,1024,1024,1684,364,0,FALSE,FALSE,FALSE,FALSE,FALSE,0,FALSE,FALSE,FALSE,FALSE,59,7.804,1166,1978,7.822,FALSE,3.907,3.897,0.01,FALSE,FALSE,0.731,113.5,113.5,113.5,,17,,,5,2048.5,512.12,,Idle,,20,,10,,24,Go Home,FALSE,FALSE,FALSE,FALSE,FALSE,FALSE,FALSE,FALSE,FALSE,FALSE,FALSE,FALSE,50.57725029,-111.8856853,11.8,2725.4,393.7,TRUE,1,1,FALSE,FALSE,FALSE,FALSE,,TRUE,FALSE,FALSE,Course Lock,393.7,86.5,16.4,7,,,,,Calm,FALSE,FALSE,,1.20.0,DJI Mini 2,,,,,236.4,6,223,36.811084,12.079476,0,0,DJI Mini 2,,,,,DJI Fly,,1.20.0,,,,,,,,,,,,
4/13/2026,29:14.6,0m 1.7s,1.7,50.57727916,-111.8856619,0,0,0.3,2467,0.2,0,0,0,0,0,0,0,0,-0.1,-0.6,26.2,26.2,,Manual Takeoff,Auto Fly,Takeoff (RC Assisted),24,5,TRUE,,Mini 2,TRUE,FALSE,,Smart,RC,TRUE,TRUE,FALSE,,,TRUE,,FALSE,FALSE,FALSE,FALSE,FALSE,FALSE,FALSE,FALSE,FALSE,FALSE,0,Follow Yaw,0,0,-8.2,351.8,FALSE,FALSE,FALSE,FALSE,FALSE,FALSE,,TRUE,Normal,100,100,1024,1024,1684,364,0,FALSE,FALSE,FALSE,FALSE,FALSE,0,FALSE,FALSE,FALSE,FALSE,59,7.785,1166,1978,7.822,FALSE,3.899,3.886,0.013,FALSE,FALSE,1.584,113.4,113.3,113.5,,17,,,5,2048.5,512.12,,Idle,,20,,10,,24,Go Home,FALSE,FALSE,FALSE,FALSE,FALSE,FALSE,FALSE,FALSE,FALSE,FALSE,FALSE,FALSE,50.57725029,-111.8856853,11.8,2725.4,393.7,TRUE,1,1,FALSE,FALSE,FALSE,FALSE,,TRUE,FALSE,FALSE,Course Lock,393.7,86.5,16.4,7,,,,,Calm,FALSE,FALSE,,1.20.0,DJI Mini 2,,,,,236.4,6,223,36.811084,12.079476,0,0,DJI Mini 2,,,,,DJI Fly,,1.20.0,,,,,,,,,,,,
4/13/2026,29:14.7,0m 1.8s,1.8,50.57727916,-111.8856619,0,0,0.3,2467,0.2,0,0,0,0,0,0,-0.223694,0,0.3,-0.1,24.1,24.1,,Manual Takeoff,Auto Fly,,24,5,TRUE,,Mini 2,TRUE,FALSE,,Smart,RC,FALSE,TRUE,FALSE,,,TRUE,,FALSE,FALSE,FALSE,FALSE,FALSE,FALSE,FALSE,FALSE,FALSE,FALSE,0,Follow Yaw,0,0,-10.3,349.7,FALSE,FALSE,FALSE,FALSE,FALSE,FALSE,,TRUE,Normal,100,100,1024,1024,1684,364,0,FALSE,FALSE,FALSE,FALSE,FALSE,0,FALSE,FALSE,FALSE,FALSE,59,7.785,1166,1978,7.822,FALSE,3.899,3.886,0.013,FALSE,FALSE,1.584,113.4,113.3,113.5,,17,,,5,2048.5,512.12,,Idle,,20,,10,,24,Go Home,FALSE,FALSE,FALSE,FALSE,FALSE,FALSE,FALSE,FALSE,FALSE,FALSE,FALSE,FALSE,50.57725029,-111.8856853,11.8,2725.4,393.7,TRUE,1,1,FALSE,FALSE,FALSE,FALSE,,TRUE,FALSE,FALSE,Course Lock,393.7,86.5,16.4,7,,,,,Calm,FALSE,FALSE,,1.20.0,DJI Mini 2,,,,,236.4,6,223,36.811084,12.079476,0,0,DJI Mini 2,,,,,DJI Fly,,1.20.0,,,,,,,,,,,,
4/13/2026,29:14.8,0m 1.9s,1.9,50.57727917,-111.885662,0,0,0.3,2467,0.2,0,0,0,0,0,0,-0.671082,0,0.1,0.2,13,13,,Sport,Auto Fly,,24,5,TRUE,,Mini 2,TRUE,FALSE,,Smart,RC,FALSE,TRUE,FALSE,,,TRUE,,FALSE,FALSE,FALSE,FALSE,FALSE,FALSE,FALSE,FALSE,FALSE,FALSE,0,Follow Yaw,0,0,-19.6,340.4,FALSE,FALSE,FALSE,FALSE,FALSE,FALSE,,TRUE,Normal,100,100,1024,1024,1684,382,0,FALSE,FALSE,FALSE,FALSE,FALSE,0,FALSE,FALSE,FALSE,FALSE,59,7.785,1166,1978,7.822,FALSE,3.899,3.886,0.013,FALSE,FALSE,1.584,113.4,113.3,113.5,,17,,,5,2048.5,512.12,,Idle,,20,,10,,24,Go Home,FALSE,FALSE,FALSE,FALSE,FALSE,FALSE,FALSE,FALSE,FALSE,FALSE,FALSE,FALSE,50.57725029,-111.8856853,11.8,2725.4,393.7,TRUE,1,1,FALSE,FALSE,FALSE,FALSE,,TRUE,FALSE,FALSE,Course Lock,393.7,86.5,16.4,7,,,,,Calm,FALSE,FALSE,,1.20.0,DJI Mini 2,,,,,236.4,6,223,36.811084,12.079476,0,0,DJI Mini 2,,,,,DJI Fly,,1.20.0,,,,,,,,,,,Flight mode changed to Sport.,
4/13/2026,29:14.9,0m 2.0s,2,50.5772791,-111.8856621,0,0,0.6,2467,0.2,0,0,0,0,0,0,-1.11847,0,0,-0.4,-0.5,359.5,,Sport,Auto Fly,,24,5,TRUE,,Mini 2,TRUE,FALSE,,Smart,RC,FALSE,TRUE,FALSE,,,TRUE,,FALSE,FALSE,FALSE,FALSE,FALSE,FALSE,FALSE,FALSE,FALSE,FALSE,0,Follow Yaw,0,0,-33.3,326.7,FALSE,FALSE,FALSE,FALSE,FALSE,FALSE,,TRUE,Normal,100,100,1024,1024,1684,435,0,FALSE,FALSE,FALSE,FALSE,FALSE,0,FALSE,FALSE,FALSE,FALSE,59,7.785,1166,1978,7.822,FALSE,3.899,3.886,0.013,FALSE,FALSE,1.584,113.4,113.3,113.5,,17,,,5,2048.5,512.12,,Idle,,20,,10,,24,Go Home,FALSE,FALSE,FALSE,FALSE,FALSE,FALSE,FALSE,FALSE,FALSE,FALSE,FALSE,FALSE,50.57725029,-111.8856853,11.7,2725.4,393.7,TRUE,1,1,FALSE,FALSE,FALSE,FALSE,,TRUE,FALSE,FALSE,Course Lock,393.7,86.5,16.4,7,,,,,Calm,FALSE,FALSE,,1.20.0,DJI Mini 2,,,,,236.4,6,223,36.811084,12.079476,0,0,DJI Mini 2,,,,,DJI Fly,,1.20.0,,,,,,,,,,,,
4/13/2026,29:15.0,0m 2.1s,2.1,50.5772791,-111.8856622,0,0,0.6,2467,0.2,0,0,0,0,0,0,-1.789552,0,0.6,0.2,-11.8,348.2,,Sport,Auto Fly,,24,5,TRUE,,Mini 2,TRUE,FALSE,,Smart,RC,FALSE,TRUE,FALSE,,,TRUE,,FALSE,FALSE,FALSE,FALSE,FALSE,FALSE,FALSE,FALSE,FALSE,FALSE,0,Follow Yaw,0,0,-45,315,FALSE,FALSE,FALSE,FALSE,FALSE,FALSE,,TRUE,Normal,100,100,1024,1024,1684,797,0,FALSE,FALSE,FALSE,FALSE,FALSE,0,FALSE,FALSE,FALSE,FALSE,59,7.785,1166,1978,7.822,FALSE,3.899,3.886,0.013,FALSE,FALSE,1.584,113.4,113.3,113.5,,17,,,5,2048.5,512.12,,Idle,,20,,10,,24,Go Home,FALSE,FALSE,FALSE,FALSE,FALSE,FALSE,FALSE,FALSE,FALSE,FALSE,FALSE,FALSE,50.57725029,-111.8856853,11.7,2725.4,393.7,TRUE,1,1,FALSE,FALSE,FALSE,FALSE,,TRUE,FALSE,FALSE,Course Lock,393.7,86.5,16.4,7,,,,,Calm,FALSE,FALSE,,1.20.0,DJI Mini 2,,,,,236.4,6,223,36.811084,12.079476,0,0,DJI Mini 2,,,,,DJI Fly,,1.20.0,,,,,,,,,,,,
4/13/2026,29:15.1,0m 2.2s,2.2,50.57727908,-111.8856623,0.3,0.3,0.9,2468,0.3,0.223694,0.223694,0,0,-0.223694,0,-2.460634,0,0.3,1.1,-21.7,338.3,255.5,Sport,Auto Fly,,24,5,TRUE,,Mini 2,TRUE,FALSE,,Smart,RC,FALSE,TRUE,FALSE,,,TRUE,,FALSE,FALSE,FALSE,FALSE,FALSE,FALSE,FALSE,FALSE,FALSE,FALSE,0,Follow Yaw,0,0,-55,305,FALSE,FALSE,FALSE,FALSE,FALSE,FALSE,,TRUE,Normal,100,100,1024,1024,1684,1024,0,FALSE,FALSE,FALSE,FALSE,FALSE,0,FALSE,FALSE,FALSE,FALSE,59,7.785,1166,1978,7.822,FALSE,3.899,3.886,0.013,FALSE,FALSE,1.584,113.4,113.3,113.5,,17,,,5,2048.5,512.12,,Idle,,20,,10,,24,Go Home,FALSE,FALSE,FALSE,FALSE,FALSE,FALSE,FALSE,FALSE,FALSE,FALSE,FALSE,FALSE,50.57725029,-111.8856853,11.7,2725.4,393.7,TRUE,1,1,FALSE,FALSE,FALSE,FALSE,,TRUE,FALSE,FALSE,Course Lock,393.7,86.5,16.4,7,,,,,Calm,FALSE,FALSE,,1.20.0,DJI Mini 2,,,,,236.4,6,223,36.811084,12.079476,0,0,DJI Mini 2,,,,,DJI Fly,,1.20.0,,,,,,,,,,,,
4/13/2026,29:15.2,0m 2.3s,2.3,50.57727904,-111.8856625,0.9,0.9,1.3,2468,0.3,0.223694,0.223694,0,0,-0.223694,0,-3.131716,0,-0.2,1.3,-22.5,337.5,248.8,Sport,Auto Fly,,24,5,TRUE,,Mini 2,TRUE,FALSE,,Smart,RC,FALSE,TRUE,FALSE,,,TRUE,,FALSE,FALSE,FALSE,FALSE,FALSE,FALSE,FALSE,FALSE,FALSE,FALSE,0,Follow Yaw,0,0,-57.7,302.3,FALSE,FALSE,FALSE,FALSE,FALSE,FALSE,,TRUE,Normal,100,100,1024,1024,1684,1684,0,FALSE,FALSE,FALSE,FALSE,FALSE,0,FALSE,FALSE,FALSE,FALSE,59,7.785,1166,1978,7.752,FALSE,3.899,3.886,0.013,FALSE,FALSE,1.584,113.4,113.3,113.5,,,,,5,2249.3,562.33,,Idle,,20,,10,,24,Go Home,FALSE,FALSE,FALSE,FALSE,FALSE,FALSE,FALSE,FALSE,FALSE,FALSE,FALSE,FALSE,50.57727916,-111.8856619,0.1,2725.4,393.7,TRUE,1,1,FALSE,FALSE,FALSE,FALSE,,TRUE,FALSE,FALSE,Course Lock,393.7,86.5,16.4,7,,,,,Calm,FALSE,FALSE,,1.20.0,DJI Mini 2,,,,,236.4,6,223,36.811084,12.079476,0,0,DJI Mini 2,,,,,DJI Fly,,1.20.0,,,,,,,,,,,Home Point Updated.,Home point updated. RTH altitude adjusted to 120m (Code: 30213).
4/13/2026,29:15.3,0m 2.4s,2.4,50.57727907,-111.8856628,1.3,1.3,1.9,2469,0.4,0.223694,0.223694,0,0,-0.223694,0,-3.802798,0,-0.4,2.7,-22.2,337.8,275.5,Sport,Auto Fly,,24,5,TRUE,,Mini 2,TRUE,FALSE,,Smart,RC,FALSE,TRUE,FALSE,,,TRUE,,FALSE,FALSE,FALSE,FALSE,FALSE,FALSE,FALSE,FALSE,FALSE,FALSE,0,Follow Yaw,0,0,-57.1,302.9,FALSE,FALSE,FALSE,FALSE,FALSE,FALSE,,TRUE,Normal,100,100,1024,1024,1684,1684,0,FALSE,FALSE,FALSE,FALSE,FALSE,0,FALSE,FALSE,FALSE,FALSE,59,7.785,1166,1978,7.752,FALSE,3.899,3.886,0.013,FALSE,FALSE,1.584,113.4,113.3,113.5,,,,,5,2249.3,562.33,,Idle,,20,,10,,24,Go Home,FALSE,FALSE,FALSE,FALSE,FALSE,FALSE,FALSE,FALSE,FALSE,FALSE,FALSE,FALSE,50.57727916,-111.8856619,0.2,2725.4,393.7,TRUE,1,1,FALSE,FALSE,FALSE,FALSE,,TRUE,FALSE,FALSE,Course Lock,393.7,86.5,16.4,7,,,,,Calm,FALSE,FALSE,,1.20.0,DJI Mini 2,,,,,236.4,6,223,36.811084,12.079476,0,0,DJI Mini 2,,,,,DJI Fly,,1.20.0,,,,,,,,,,,,
4/13/2026,29:15.4,0m 2.5s,2.5,50.57727908,-111.885663,2.2,2.2,2.6,2469,0.4,0,0.223694,0,0,0,0,-4.47388,0,0.2,2.3,-19.7,340.3,,Sport,Auto Fly,,25,5,TRUE,,Mini 2,TRUE,FALSE,,Smart,RC,FALSE,TRUE,FALSE,,,TRUE,,FALSE,FALSE,FALSE,FALSE,FALSE,FALSE,FALSE,FALSE,FALSE,FALSE,0,Follow Yaw,0,0,-49.7,310.3,FALSE,FALSE,FALSE,FALSE,FALSE,FALSE,,TRUE,Normal,100,100,1024,1024,1684,1684,0,FALSE,FALSE,FALSE,FALSE,FALSE,0,FALSE,FALSE,FALSE,FALSE,59,7.785,1166,1978,7.752,FALSE,3.899,3.886,0.013,FALSE,FALSE,1.584,113.4,113.3,113.5,,,,,5,2249.3,562.33,,Idle,,20,,10,,24,Go Home,FALSE,FALSE,FALSE,FALSE,FALSE,FALSE,FALSE,FALSE,FALSE,FALSE,FALSE,FALSE,50.57727916,-111.8856619,0.2,2725.4,393.7,TRUE,1,1,FALSE,FALSE,FALSE,FALSE,,TRUE,FALSE,FALSE,Course Lock,393.7,86.5,16.4,7,,,,,Calm,FALSE,FALSE,,1.20.0,DJI Mini 2,,,,,236.4,6,223,36.811084,12.079476,0,0,DJI Mini 2,,,,,DJI Fly,,1.20.0,,,,,,,,,,,,
4/13/2026,29:15.5,0m 2.6s,2.6,50.57727919,-111.8856632,2.9,2.9,3.2,2470,0.5,0,0.223694,0,0,0,0,-5.368656,0,0.7,1.8,-10.1,349.9,,Sport,Auto Fly,,25,5,TRUE,,Mini 2,TRUE,FALSE,,Smart,RC,FALSE,TRUE,FALSE,,,TRUE,,FALSE,FALSE,FALSE,FALSE,FALSE,FALSE,FALSE,FALSE,FALSE,FALSE,0,Follow Yaw,0,0,-39.4,320.6,FALSE,FALSE,FALSE,FALSE,FALSE,FALSE,,TRUE,Normal,100,100,1024,1024,1684,1684,0,FALSE,FALSE,FALSE,FALSE,FALSE,0,FALSE,FALSE,FALSE,FALSE,59,7.785,1166,1978,7.752,FALSE,3.899,3.886,0.013,FALSE,FALSE,1.584,113.4,113.3,113.5,,,,,5,2249.3,562.33,,Idle,,20,,10,,24,Go Home,FALSE,FALSE,FALSE,FALSE,FALSE,FALSE,FALSE,FALSE,FALSE,FALSE,FALSE,FALSE,50.57727916,-111.8856619,0.2,2725.4,393.7,TRUE,1,1,FALSE,FALSE,FALSE,FALSE,,TRUE,FALSE,FALSE,Course Lock,393.7,86.5,16.4,7,,,,,Calm,FALSE,FALSE,,1.20.0,DJI Mini 2,,,,,236.4,6,223,36.811084,12.079476,0,0,DJI Mini 2,,,,,DJI Fly,,1.20.0,,,,,,,,,,,,
4/13/2026,29:15.6,0m 2.7s,2.7,50.57727929,-111.8856633,3.9,3.9,4.2,2471,0.5,0,0.223694,0,0,0,0,-6.263432,0,0.2,1.9,-0.1,359.9,,Sport,Auto Fly,,26,5,TRUE,,Mini 2,TRUE,FALSE,,Smart,RC,FALSE,TRUE,FALSE,,,TRUE,,FALSE,FALSE,FALSE,FALSE,FALSE,FALSE,FALSE,FALSE,FALSE,FALSE,0,Follow Yaw,0,0,-29.7,330.3,FALSE,FALSE,FALSE,FALSE,FALSE,FALSE,,TRUE,Normal,100,100,1024,1024,1684,1229,0,FALSE,FALSE,FALSE,FALSE,FALSE,0,FALSE,FALSE,FALSE,FALSE,59,7.614,1165,1978,7.752,FALSE,3.819,3.795,0.024,FALSE,FALSE,4.346,113.4,113.3,113.5,,,,,5,2249.3,562.33,,Idle,,20,,10,,24,Go Home,FALSE,FALSE,FALSE,FALSE,FALSE,FALSE,FALSE,FALSE,FALSE,FALSE,FALSE,FALSE,50.57727916,-111.8856619,0.3,2725.4,393.7,TRUE,1,1,FALSE,FALSE,FALSE,FALSE,,TRUE,FALSE,FALSE,Course Lock,393.7,86.5,16.4,7,,,,,Calm,FALSE,FALSE,,1.20.0,DJI Mini 2,,,,,236.4,6,223,36.811084,12.079476,0,0,DJI Mini 2,,,,,DJI Fly,,1.20.0,,,,,,,,,,,,
4/13/2026,29:15.7,0m 2.8s,2.8,50.57727947,-111.8856635,5.2,5.2,5.2,2472,0.6,0,0.223694,0,0,0,0,-6.934514,0,0.3,1.9,7.1,7.1,,Sport,Auto Fly,,26,5,TRUE,,Mini 2,TRUE,FALSE,,Smart,RC,FALSE,TRUE,FALSE,,,TRUE,,FALSE,FALSE,FALSE,FALSE,FALSE,FALSE,FALSE,FALSE,FALSE,FALSE,0,Follow Yaw,0,0,-26.4,333.6,FALSE,FALSE,FALSE,FALSE,FALSE,FALSE,,TRUE,Normal,100,100,1024,1024,1684,1244,0,FALSE,FALSE,FALSE,FALSE,FALSE,0,FALSE,FALSE,FALSE,FALSE,59,7.614,1165,1978,7.752,FALSE,3.819,3.795,0.024,FALSE,FALSE,4.346,113.4,113.3,113.5,,,,,5,2249.3,562.33,,Idle,,20,,10,,24,Go Home,FALSE,FALSE,FALSE,FALSE,FALSE,FALSE,FALSE,FALSE,FALSE,FALSE,FALSE,FALSE,50.57727916,-111.8856619,0.3,2725.4,393.7,TRUE,1,1,FALSE,FALSE,FALSE,FALSE,,TRUE,FALSE,FALSE,Course Lock,393.7,86.5,16.4,7,,,,,Calm,FALSE,FALSE,,1.20.0,DJI Mini 2,,,,,236.4,6,223,36.811084,12.079476,0,0,DJI Mini 2,,,,,DJI Fly,,1.20.0,,,,,,,,,,,,
4/13/2026,29:15.8,0m 2.9s,2.9,50.57727951,-111.8856636,6.5,6.5,6.2,2474,0.6,0,0.223694,0,0,0,0,-7.82929,0,-0.4,1.1,8.6,8.6,,Sport,Auto Fly,,26,5,TRUE,,Mini 2,TRUE,FALSE,,Smart,RC,FALSE,TRUE,FALSE,,,TRUE,,FALSE,FALSE,FALSE,FALSE,FALSE,FALSE,FALSE,FALSE,FALSE,FALSE,0,Follow Yaw,0,0,-25,335,FALSE,FALSE,FALSE,FALSE,FALSE,FALSE,,TRUE,Normal,100,100,1024,1024,1684,1024,0,FALSE,FALSE,FALSE,FALSE,FALSE,0,FALSE,FALSE,FALSE,FALSE,59,7.614,1165,1978,7.752,FALSE,3.819,3.795,0.024,FALSE,FALSE,4.346,113.4,113.3,113.5,,,,,5,2249.3,562.33,,Idle,,20,,10,,24,Go Home,FALSE,FALSE,FALSE,FALSE,FALSE,FALSE,FALSE,FALSE,FALSE,FALSE,FALSE,FALSE,50.57727916,-111.8856619,0.4,2725.4,393.7,TRUE,1,1,FALSE,FALSE,FALSE,FALSE,,TRUE,FALSE,FALSE,Course Lock,393.7,86.5,16.4,7,,,,,Calm,FALSE,FALSE,,1.20.0,DJI Mini 2,,,,,236.4,6,223,36.811084,12.079476,0,0,DJI Mini 2,,,,,DJI Fly,,1.20.0,,,,,,,,,,,,
4/13/2026,29:15.9,0m 3.0s,3,50.57727953,-111.8856636,7.8,7.8,7.5,2475,0.7,0,0.223694,0,0,0,0,-8.724066,0,-0.4,0.8,9.9,9.9,,Sport,Auto Fly,,26,5,TRUE,,Mini 2,TRUE,FALSE,,Smart,RC,FALSE,TRUE,FALSE,,,TRUE,,FALSE,FALSE,FALSE,FALSE,FALSE,FALSE,FALSE,FALSE,FALSE,FALSE,0,Follow Yaw,0,0,-24.5,335.5,FALSE,FALSE,FALSE,FALSE,FALSE,FALSE,,TRUE,Normal,100,100,1024,1024,1684,1024,0,FALSE,FALSE,FALSE,FALSE,FALSE,0,FALSE,FALSE,FALSE,FALSE,59,7.614,1165,1978,7.752,FALSE,3.819,3.795,0.024,FALSE,FALSE,4.346,113.4,113.3,113.5,,,,,5,2249.3,562.33,,Idle,,20,,10,,24,Go Home,FALSE,FALSE,FALSE,FALSE,FALSE,FALSE,FALSE,FALSE,FALSE,FALSE,FALSE,FALSE,50.57727916,-111.8856619,0.4,2725.4,393.7,TRUE,1,1,FALSE,FALSE,FALSE,FALSE,,TRUE,FALSE,FALSE,Course Lock,393.7,86.5,16.4,7,,,,,Calm,FALSE,FALSE,,1.20.0,DJI Mini 2,,,,,236.4,6,223,36.811084,12.079476,0,0,DJI Mini 2,,,,,DJI Fly,,1.20.0,,,,,,,,,,,,
4/13/2026,29:16.0,0m 3.1s,3.1,50.57727957,-111.8856637,9.5,9.5,8.8,2477,0.7,0,0.223694,0,0,0,0,-9.618842,0,-0.3,0.8,10.4,10.4,,Sport,Auto Fly,,26,5,TRUE,,Mini 2,TRUE,FALSE,,Smart,RC,FALSE,TRUE,FALSE,,,TRUE,,FALSE,FALSE,FALSE,FALSE,FALSE,FALSE,FALSE,FALSE,FALSE,FALSE,0,Follow Yaw,0,0,-24.4,335.6,FALSE,FALSE,FALSE,FALSE,FALSE,FALSE,,TRUE,Normal,100,100,1024,1024,1024,1024,0,FALSE,FALSE,FALSE,FALSE,FALSE,0,FALSE,FALSE,FALSE,FALSE,59,7.614,1165,1978,7.752,FALSE,3.819,3.795,0.024,FALSE,FALSE,4.346,113.4,113.3,113.5,,,,,5,2249.3,562.33,,Idle,,20,,10,,24,Go Home,FALSE,FALSE,FALSE,FALSE,FALSE,FALSE,FALSE,FALSE,FALSE,FALSE,FALSE,FALSE,50.57727916,-111.8856619,0.4,2725.4,393.7,TRUE,1,1,FALSE,FALSE,FALSE,FALSE,,TRUE,FALSE,FALSE,Course Lock,393.7,86.5,16.4,7,,,,,Calm,FALSE,FALSE,,1.20.0,DJI Mini 2,,,,,236.4,6,223,36.811084,12.079476,0,0,DJI Mini 2,,,,,DJI Fly,,1.20.0,,,,,,,,,,,,
4/13/2026,29:16.1,0m 3.2s,3.2,50.57727972,-111.8856639,11.1,11.1,10.1,2478,0.8,0,0.223694,0,0,0,0,-10.289924,0,0.3,1,10.7,10.7,,Sport,Auto Fly,,26,5,TRUE,,Mini 2,TRUE,FALSE,,Smart,RC,FALSE,TRUE,FALSE,,,TRUE,,FALSE,FALSE,FALSE,FALSE,FALSE,FALSE,FALSE,FALSE,FALSE,FALSE,0,Follow Yaw,0,0,-24.4,335.6,FALSE,FALSE,FALSE,FALSE,FALSE,FALSE,,TRUE,Normal,100,100,1024,1024,530,1024,0,FALSE,FALSE,FALSE,FALSE,FALSE,0,FALSE,FALSE,FALSE,FALSE,59,7.614,1165,1978,7.752,FALSE,3.819,3.795,0.024,FALSE,FALSE,4.346,113.4,113.3,113.5,,,,,5,2249.3,562.33,,Idle,,20,,10,,24,Go Home,FALSE,FALSE,FALSE,FALSE,FALSE,FALSE,FALSE,FALSE,FALSE,FALSE,FALSE,FALSE,50.57727916,-111.8856619,0.5,2725.4,393.7,TRUE,1,1,FALSE,FALSE,FALSE,FALSE,,TRUE,FALSE,FALSE,Course Lock,393.7,86.5,16.4,7,,,,,Calm,FALSE,FALSE,,1.20.0,DJI Mini 2,,,,,236.4,6,223,36.811084,12.079476,0,0,DJI Mini 2,,,,,DJI Fly,,1.20.0,,,,,,,,,,,,
4/13/2026,29:16.2,0m 3.3s,3.3,50.57727982,-111.8856641,12.7,12.7,11.8,2480,0.8,0,0.223694,0,0,0,0,-10.289924,0,-0.9,0.7,10.9,10.9,,Sport,Auto Fly,,26,5,TRUE,,Mini 2,TRUE,FALSE,,Smart,RC,FALSE,TRUE,FALSE,,,TRUE,,FALSE,FALSE,FALSE,FALSE,FALSE,FALSE,FALSE,FALSE,FALSE,FALSE,0,Follow Yaw,0,0,-24.4,335.6,FALSE,FALSE,FALSE,FALSE,FALSE,FALSE,,TRUE,Normal,100,100,1024,1024,364,993,0,FALSE,FALSE,FALSE,FALSE,FALSE,0,FALSE,FALSE,FALSE,FALSE,59,7.614,1165,1978,7.69,FALSE,3.819,3.795,0.024,FALSE,FALSE,4.346,113.4,113.3,113.5,,,1,,5,2859.8,714.95,,Idle,,20,,10,,24,Go Home,FALSE,FALSE,FALSE,FALSE,FALSE,FALSE,FALSE,FALSE,FALSE,FALSE,FALSE,FALSE,50.57727916,-111.8856619,0.5,2725.4,393.7,TRUE,1,1,FALSE,FALSE,FALSE,FALSE,,TRUE,FALSE,FALSE,Course Lock,393.7,86.5,16.4,7,,,,,Calm,FALSE,FALSE,,1.20.0,DJI Mini 2,,,,,236.4,6,223,36.811084,12.079476,0,0,DJI Mini 2,,,,,DJI Fly,,1.20.0,,,,,,,,,,,,
4/13/2026,29:16.3,0m 3.4s,3.4,50.57727987,-111.8856641,14.4,14.4,13.1,2482,0.8,0,0.223694,0,0,0,0,-9.842536,0,-0.9,0.9,10.9,10.9,,Sport,Auto Fly,,26,5,TRUE,,Mini 2,TRUE,FALSE,,Smart,RC,FALSE,TRUE,FALSE,,,TRUE,,FALSE,FALSE,FALSE,FALSE,FALSE,FALSE,FALSE,FALSE,FALSE,FALSE,0,Follow Yaw,0,0,-24.4,335.6,FALSE,FALSE,FALSE,FALSE,FALSE,FALSE,,TRUE,Normal,100,100,1024,1024,364,1013,0,FALSE,FALSE,FALSE,FALSE,FALSE,0,FALSE,FALSE,FALSE,FALSE,59,7.614,1165,1978,7.69,FALSE,3.819,3.795,0.024,FALSE,FALSE,4.346,113.4,113.3,113.5,,,1,,5,2859.8,714.95,,Idle,,20,,10,,24,Go Home,FALSE,FALSE,FALSE,FALSE,FALSE,FALSE,FALSE,FALSE,FALSE,FALSE,FALSE,FALSE,50.57727916,-111.8856619,0.5,2725.4,393.7,TRUE,1,1,FALSE,FALSE,FALSE,FALSE,,TRUE,FALSE,FALSE,Course Lock,393.7,86.5,16.4,7,,,,,Calm,FALSE,FALSE,,1.20.0,DJI Mini 2,,,,,236.4,6,223,36.811084,12.079476,0,0,DJI Mini 2,,,,,DJI Fly,,1.20.0,,,,,,,,,,,,
4/13/2026,29:16.4,0m 3.5s,3.5,50.57727992,-111.8856642,16,16,14.4,2483,0.9,0.223694,0.223694,-0.223694,0,0,0,-9.395148,0,-1.4,0.6,10.8,10.8,314.6,Sport,Auto Fly,,26,5,TRUE,,Mini 2,TRUE,FALSE,,Smart,RC,FALSE,TRUE,FALSE,,,TRUE,,FALSE,FALSE,FALSE,FALSE,FALSE,FALSE,FALSE,FALSE,FALSE,FALSE,0,Follow Yaw,0,0,-24.5,335.5,FALSE,FALSE,FALSE,FALSE,FALSE,FALSE,,TRUE,Normal,100,100,1024,1024,364,1013,0,FALSE,FALSE,FALSE,FALSE,FALSE,0,FALSE,FALSE,FALSE,FALSE,59,7.614,1165,1978,7.69,FALSE,3.819,3.795,0.024,FALSE,FALSE,4.346,113.4,113.3,113.5,,,1,,5,2859.8,714.95,,Idle,,20,,10,,24,Go Home,FALSE,FALSE,FALSE,FALSE,FALSE,FALSE,FALSE,FALSE,FALSE,FALSE,FALSE,FALSE,50.57727916,-111.8856619,0.6,2725.4,393.7,TRUE,1,1,FALSE,FALSE,FALSE,FALSE,,TRUE,FALSE,FALSE,Course Lock,393.7,86.5,16.4,7,,,,,Calm,FALSE,FALSE,,1.20.0,DJI Mini 2,,,,,236.4,6,223,36.811084,12.079476,0,0,DJI Mini 2,,,,,DJI Fly,,1.20.0,,,,,,,,,,,,
4/13/2026,29:16.5,0m 3.6s,3.6,50.57727996,-111.8856644,17.3,17.3,15.7,2485,0.9,0,0.223694,0,0,0,0,-8.500372,0,-1.7,0.7,10.8,10.8,,Sport,Auto Fly,,26,5,TRUE,,Mini 2,TRUE,FALSE,,Smart,RC,FALSE,TRUE,FALSE,,,TRUE,,FALSE,FALSE,FALSE,FALSE,FALSE,FALSE,FALSE,FALSE,FALSE,FALSE,0,Follow Yaw,0,0,-24.5,335.5,FALSE,FALSE,FALSE,FALSE,FALSE,FALSE,,TRUE,Normal,100,100,1024,1024,364,991,0,FALSE,FALSE,FALSE,FALSE,FALSE,0,FALSE,FALSE,FALSE,FALSE,59,7.614,1165,1978,7.69,FALSE,3.819,3.795,0.024,FALSE,FALSE,4.346,113.4,113.3,113.5,,,1,,5,2859.8,714.95,,Idle,,20,,10,,24,Go Home,FALSE,FALSE,FALSE,FALSE,FALSE,FALSE,FALSE,FALSE,FALSE,FALSE,FALSE,FALSE,50.57727916,-111.8856619,0.6,2725.4,393.7,TRUE,1,1,FALSE,FALSE,FALSE,FALSE,,TRUE,FALSE,FALSE,Course Lock,393.7,86.5,16.4,7,,,,,Calm,FALSE,FALSE,,1.20.0,DJI Mini 2,,,,,236.4,6,223,36.811084,12.079476,0,0,DJI Mini 2,,,,,DJI Fly,,1.20.0,,,,,,,,,,,,
4/13/2026,29:16.6,0m 3.7s,3.7,50.57727988,-111.8856645,18.7,18.7,16.7,2486,0.9,0.223694,0.223694,-0.223694,0,0,0,-7.605596,0,-3.2,0.2,10.8,10.8,235.4,Sport,Auto Fly,,25,5,TRUE,,Mini 2,TRUE,FALSE,,Smart,RC,FALSE,TRUE,FALSE,,,TRUE,,FALSE,FALSE,FALSE,FALSE,FALSE,FALSE,FALSE,FALSE,FALSE,FALSE,0,Follow Yaw,0,0,-24.5,335.5,FALSE,FALSE,FALSE,FALSE,FALSE,FALSE,,TRUE,Normal,100,100,1024,1024,364,1019,0,FALSE,FALSE,FALSE,FALSE,FALSE,0,FALSE,FALSE,FALSE,FALSE,59,7.604,1164,1978,7.69,FALSE,3.811,3.793,0.024,FALSE,FALSE,8.258,113.4,113.3,113.5,,,1,,5,2859.8,714.95,,Idle,,20,,10,,24,Go Home,FALSE,FALSE,FALSE,FALSE,FALSE,FALSE,FALSE,FALSE,FALSE,FALSE,FALSE,FALSE,50.57727916,-111.8856619,0.6,2725.4,393.7,TRUE,1,1,FALSE,FALSE,FALSE,FALSE,,TRUE,FALSE,FALSE,Course Lock,393.7,86.5,16.4,7,,,,,Calm,FALSE,FALSE,,1.20.0,DJI Mini 2,,,,,236.4,6,223,36.811084,12.079476,0,0,DJI Mini 2,,,,,DJI Fly,,1.20.0,,,,,,,,,,,,
4/13/2026,29:16.7,0m 3.8s,3.8,50.57727994,-111.8856648,19.6,19.6,17.7,2487,1,0,0.223694,0,0,0,0,-6.71082,0,-2.7,0.6,10.7,10.7,,Sport,Auto Fly,,25,5,TRUE,,Mini 2,TRUE,FALSE,,Smart,RC,FALSE,TRUE,FALSE,,,TRUE,,FALSE,FALSE,FALSE,FALSE,FALSE,FALSE,FALSE,FALSE,FALSE,FALSE,0,Follow Yaw,0,0,-24.5,335.5,FALSE,FALSE,FALSE,FALSE,FALSE,FALSE,,TRUE,Normal,100,100,1024,1024,364,1024,0,FALSE,FALSE,FALSE,FALSE,FALSE,0,FALSE,FALSE,FALSE,FALSE,59,7.604,1164,1978,7.69,FALSE,3.811,3.793,0.024,FALSE,FALSE,8.258,113.4,113.3,113.5,,,1,,5,2859.8,714.95,,Idle,,20,,10,,24,Go Home,FALSE,FALSE,FALSE,FALSE,FALSE,FALSE,FALSE,FALSE,FALSE,FALSE,FALSE,FALSE,50.57727916,-111.8856619,0.7,2725.4,393.7,TRUE,1,1,FALSE,FALSE,FALSE,FALSE,,TRUE,FALSE,FALSE,Course Lock,393.7,86.5,16.4,7,,,,,Calm,FALSE,FALSE,,1.20.0,DJI Mini 2,,,,,236.4,6,223,36.811084,12.079476,0,0,DJI Mini 2,,,,,DJI Fly,,1.20.0,,,,,,,,,,,,
4/13/2026,29:16.8,0m 3.9s,3.9,50.57728002,-111.885665,20.6,20.6,18.7,2488,1.1,0,0.223694,0,0,0,0,-5.816044,0,-2.7,0.6,10.7,10.7,,Sport,Auto Fly,,26,5,TRUE,,Mini 2,TRUE,FALSE,,Smart,RC,FALSE,TRUE,FALSE,,,TRUE,,FALSE,FALSE,FALSE,FALSE,FALSE,FALSE,FALSE,FALSE,FALSE,FALSE,0,Follow Yaw,0,0,-24.5,335.5,FALSE,FALSE,FALSE,FALSE,FALSE,FALSE,,TRUE,Normal,100,100,1024,1024,364,1024,0,FALSE,FALSE,FALSE,FALSE,FALSE,0,FALSE,FALSE,FALSE,FALSE,59,7.604,1164,1978,7.69,FALSE,3.811,3.793,0.024,FALSE,FALSE,8.258,113.4,113.3,113.5,,,1,,5,2859.8,714.95,,Idle,,20,,10,,24,Go Home,FALSE,FALSE,FALSE,FALSE,FALSE,FALSE,FALSE,FALSE,FALSE,FALSE,FALSE,FALSE,50.57727916,-111.8856619,0.7,2725.4,393.7,TRUE,1,1,FALSE,FALSE,FALSE,FALSE,,TRUE,FALSE,FALSE,Course Lock,393.7,86.5,16.4,7,,,,,Calm,FALSE,FALSE,,1.20.0,DJI Mini 2,,,,,236.4,6,223,36.811084,12.079476,0,0,DJI Mini 2,,,,,DJI Fly,,1.20.0,,,,,,,,,,,,
4/13/2026,29:16.9,0m 4.0s,4,50.57728023,-111.8856653,21.6,21.6,19.3,2489,1.2,0,0.223694,0,0,0,0,-4.921268,0,-1.8,1.5,10.7,10.7,,Sport,Auto Fly,,26,5,TRUE,,Mini 2,TRUE,FALSE,,Smart,RC,FALSE,TRUE,FALSE,,,TRUE,,FALSE,FALSE,FALSE,FALSE,FALSE,FALSE,FALSE,FALSE,FALSE,FALSE,0,Follow Yaw,0,0,-24.5,335.5,FALSE,FALSE,FALSE,FALSE,FALSE,FALSE,,TRUE,Normal,100,100,1024,1024,364,1024,0,FALSE,FALSE,FALSE,FALSE,FALSE,0,FALSE,FALSE,FALSE,FALSE,59,7.604,1164,1978,7.69,FALSE,3.811,3.793,0.024,FALSE,FALSE,8.258,113.4,113.3,113.5,,,1,,5,2859.8,714.95,,Idle,,20,,10,,24,Go Home,FALSE,FALSE,FALSE,FALSE,FALSE,FALSE,FALSE,FALSE,FALSE,FALSE,FALSE,FALSE,50.57727916,-111.8856619,0.8,2725.4,393.7,TRUE,1,1,FALSE,FALSE,FALSE,FALSE,,TRUE,FALSE,FALSE,Course Lock,393.7,86.5,16.4,7,,,,,Calm,FALSE,FALSE,,1.20.0,DJI Mini 2,,,,,236.4,6,223,36.811084,12.079476,0,0,DJI Mini 2,,,,,DJI Fly,,1.20.0,,,,,,,,,,,,
4/13/2026,29:17.0,0m 4.1s,4.1,50.57728044,-111.8856657,22.3,22.3,20,2490,1.3,0,0.223694,0,0,0,0,-4.026492,0,-1.8,1.6,10.7,10.7,,Sport,Auto Fly,,25,5,TRUE,,Mini 2,TRUE,FALSE,,Smart,RC,FALSE,TRUE,FALSE,,,TRUE,,FALSE,FALSE,FALSE,FALSE,FALSE,FALSE,FALSE,FALSE,FALSE,FALSE,0,Follow Yaw,0,0,-24.5,335.5,FALSE,FALSE,FALSE,FALSE,FALSE,FALSE,,TRUE,Normal,100,100,1024,1024,364,1024,0,FALSE,FALSE,FALSE,FALSE,FALSE,0,FALSE,FALSE,FALSE,FALSE,59,7.604,1164,1978,7.69,FALSE,3.811,3.793,0.024,FALSE,FALSE,8.258,113.4,113.3,113.5,,,1,,5,2859.8,714.95,,Idle,,20,,10,,24,Go Home,FALSE,FALSE,FALSE,FALSE,FALSE,FALSE,FALSE,FALSE,FALSE,FALSE,FALSE,FALSE,50.57727916,-111.8856619,0.9,2725.4,393.7,TRUE,1,1,FALSE,FALSE,FALSE,FALSE,,TRUE,FALSE,FALSE,Course Lock,393.7,86.5,16.4,7,,,,,Calm,FALSE,FALSE,,1.20.0,DJI Mini 2,,,,,236.4,6,223,36.811084,12.079476,0,0,DJI Mini 2,,,,,DJI Fly,,1.20.0,,,,,,,,,,,,
4/13/2026,29:17.1,0m 4.2s,4.2,50.57728073,-111.8856659,22.6,22.6,20.6,2490,1.4,0.223694,0.223694,0.223694,0.223694,0,0,-2.908022,0,-0.7,2.5,10.8,10.8,333.1,Sport,Auto Fly,,25,5,TRUE,,Mini 2,TRUE,FALSE,,Smart,RC,FALSE,TRUE,FALSE,,,TRUE,,FALSE,FALSE,FALSE,FALSE,FALSE,FALSE,FALSE,FALSE,FALSE,FALSE,0,Follow Yaw,0,0,-24.5,335.5,FALSE,FALSE,FALSE,FALSE,FALSE,FALSE,,TRUE,Normal,100,100,1024,1024,364,1024,0,FALSE,FALSE,FALSE,FALSE,FALSE,0,FALSE,FALSE,FALSE,FALSE,59,7.604,1164,1978,7.69,FALSE,3.811,3.793,0.024,FALSE,FALSE,8.258,113.4,113.3,113.5,,,1,,5,2859.8,714.95,,Idle,,20,,10,,24,Go Home,FALSE,FALSE,FALSE,FALSE,FALSE,FALSE,FALSE,FALSE,FALSE,FALSE,FALSE,FALSE,50.57727916,-111.8856619,1,2725.4,393.7,TRUE,1,1,FALSE,FALSE,FALSE,FALSE,,TRUE,FALSE,FALSE,Course Lock,393.7,86.5,16.4,7,,,,,Calm,FALSE,FALSE,,1.20.0,DJI Mini 2,,,,,236.4,6,223,36.811084,12.079476,0,0,DJI Mini 2,,,,,DJI Fly,,1.20.0,,,,,,,,,,,,
4/13/2026,29:17.2,0m 4.3s,4.3,50.577281,-111.8856662,22.9,22.9,20.9,2490,1.5,0.447388,0.447388,0.447388,0.447388,0,0,-2.013246,0,1.9,2.6,10.8,10.8,333.4,Sport,Auto Fly,,27,5,TRUE,,Mini 2,TRUE,FALSE,,Smart,RC,FALSE,TRUE,FALSE,,,TRUE,,FALSE,FALSE,FALSE,FALSE,FALSE,FALSE,FALSE,FALSE,FALSE,FALSE,0,Follow Yaw,0,0,-24.5,335.5,FALSE,FALSE,FALSE,FALSE,FALSE,FALSE,,TRUE,Normal,100,100,1024,1024,364,1024,0,FALSE,FALSE,FALSE,FALSE,FALSE,0,FALSE,FALSE,FALSE,FALSE,59,7.604,1164,1978,7.557,FALSE,3.811,3.793,0.024,FALSE,FALSE,8.258,113.4,113.3,113.5,,1,2,,5,4510.4,1127.62,,Idle,,20,,10,,24,Go Home,FALSE,FALSE,FALSE,FALSE,FALSE,FALSE,FALSE,FALSE,FALSE,FALSE,FALSE,FALSE,50.57727916,-111.8856619,1.1,2725.4,393.7,TRUE,1,1,FALSE,FALSE,FALSE,FALSE,,TRUE,FALSE,FALSE,Course Lock,393.7,86.5,16.4,7,,,,,Calm,FALSE,FALSE,,1.20.0,DJI Mini 2,,,,,236.4,6,223,36.811084,12.079476,0,0,DJI Mini 2,,,,,DJI Fly,,1.20.0,,,,,,,,,,,,
4/13/2026,29:17.3,0m 4.4s,4.4,50.57728128,-111.8856663,23.2,23.2,20.9,2490,1.6,0.447388,0.447388,0.447388,0.447388,0,0,-0.894776,0,2.8,2.5,10.7,10.7,337.5,Sport,Auto Fly,,27,5,TRUE,,Mini 2,TRUE,FALSE,,Smart,RC,FALSE,TRUE,FALSE,,,TRUE,,FALSE,FALSE,FALSE,FALSE,FALSE,FALSE,FALSE,FALSE,FALSE,FALSE,0,Follow Yaw,0,0,-24.5,335.5,FALSE,FALSE,FALSE,FALSE,FALSE,FALSE,,TRUE,Normal,100,100,1024,1024,364,1024,0,FALSE,FALSE,FALSE,FALSE,FALSE,0,FALSE,FALSE,FALSE,FALSE,59,7.604,1164,1978,7.557,FALSE,3.811,3.793,0.024,FALSE,FALSE,8.258,113.4,113.3,113.5,,1,2,,5,4510.4,1127.62,,Idle,,20,,10,,24,Go Home,FALSE,FALSE,FALSE,FALSE,FALSE,FALSE,FALSE,FALSE,FALSE,FALSE,FALSE,FALSE,50.57727916,-111.8856619,1.2,2725.4,393.7,TRUE,1,1,FALSE,FALSE,FALSE,FALSE,,TRUE,FALSE,FALSE,Course Lock,393.7,86.5,16.4,7,,,,,Calm,FALSE,FALSE,,1.20.0,DJI Mini 2,,,,,236.4,6,223,36.811084,12.079476,0,0,DJI Mini 2,,,,,DJI Fly,,1.20.0,,,,,,,,,,,,
4/13/2026,29:17.4,0m 4.5s,4.5,50.57728179,-111.8856665,23.2,23.2,21.3,2490,1.8,0.447388,0.447388,0.447388,0.447388,0,0,0,0,4.3,2.5,10.7,10.7,351.4,Sport,Auto Fly,,28,5,TRUE,,Mini 2,TRUE,FALSE,,Smart,RC,FALSE,TRUE,FALSE,,,TRUE,,FALSE,FALSE,FALSE,FALSE,FALSE,FALSE,FALSE,FALSE,FALSE,FALSE,0,Follow Yaw,0,0,-24.5,335.5,FALSE,FALSE,FALSE,FALSE,FALSE,FALSE,,TRUE,Normal,100,100,1024,1024,364,1024,0,FALSE,FALSE,FALSE,FALSE,FALSE,0,FALSE,FALSE,FALSE,FALSE,59,7.604,1164,1978,7.557,FALSE,3.811,3.793,0.024,FALSE,FALSE,8.258,113.4,113.3,113.5,,1,2,,5,4510.4,1127.62,,Idle,,20,,10,,24,Go Home,FALSE,FALSE,FALSE,FALSE,FALSE,FALSE,FALSE,FALSE,FALSE,FALSE,FALSE,FALSE,50.57727916,-111.8856619,1.4,2725.4,393.7,TRUE,1,1,FALSE,FALSE,FALSE,FALSE,,TRUE,FALSE,FALSE,Course Lock,393.7,86.5,16.4,7,,,,,Calm,FALSE,FALSE,,1.20.0,DJI Mini 2,,,,,236.4,6,223,36.811084,12.079476,0,0,DJI Mini 2,,,,,DJI Fly,,1.20.0,,,,,,,,,,,,
4/13/2026,29:17.5,0m 4.6s,4.6,50.57728189,-111.8856667,23.2,23.2,21.3,2490,1.9,0.447388,0.447388,0.447388,0.447388,0,0,0.894776,0.894776,6.3,2.8,10.8,10.8,301.5,Sport,Auto Fly,,28,5,TRUE,,Mini 2,TRUE,FALSE,,Smart,RC,FALSE,TRUE,FALSE,,,TRUE,,FALSE,FALSE,FALSE,FALSE,FALSE,FALSE,FALSE,FALSE,FALSE,FALSE,0,Follow Yaw,0,0,-24.5,335.5,FALSE,FALSE,FALSE,FALSE,FALSE,FALSE,,TRUE,Normal,100,100,1024,1024,364,1024,0,FALSE,FALSE,FALSE,FALSE,FALSE,0,FALSE,FALSE,FALSE,FALSE,59,7.604,1164,1978,7.557,FALSE,3.811,3.793,0.024,FALSE,FALSE,8.258,113.4,113.3,113.5,,1,2,,5,4510.4,1127.62,,Idle,,20,,10,,24,Go Home,FALSE,FALSE,FALSE,FALSE,FALSE,FALSE,FALSE,FALSE,FALSE,FALSE,FALSE,FALSE,50.57727916,-111.8856619,1.4,2725.4,393.7,TRUE,1,1,FALSE,FALSE,FALSE,FALSE,,TRUE,FALSE,FALSE,Course Lock,393.7,86.5,16.4,7,,,,,Calm,FALSE,FALSE,,1.20.0,DJI Mini 2,,,,,236.4,6,223,36.811084,12.079476,0,0,DJI Mini 2,,,,,DJI Fly,,1.20.0,,,,,,,,,,,,
4/13/2026,29:17.6,0m 4.7s,4.7,50.57728194,-111.8856669,22.9,23.2,21.3,2490,1.9,0.223694,0.447388,0.223694,0.447388,0,0,2.013246,2.013246,6.9,2.9,10.8,10.8,289.1,Sport,Auto Fly,,28,5,TRUE,,Mini 2,TRUE,FALSE,,Smart,RC,FALSE,TRUE,FALSE,,,TRUE,,FALSE,FALSE,FALSE,FALSE,FALSE,FALSE,FALSE,FALSE,FALSE,FALSE,0,Follow Yaw,0,0,-24.5,335.5,FALSE,FALSE,FALSE,FALSE,FALSE,FALSE,,TRUE,Normal,100,100,1024,1024,364,1024,0,FALSE,FALSE,FALSE,FALSE,FALSE,0,FALSE,FALSE,FALSE,FALSE,59,7.716,1161,1978,7.557,FALSE,3.811,3.793,0.024,FALSE,FALSE,3.493,113.2,113.1,113.5,,1,2,,5,4510.4,1127.62,,Idle,,20,,10,,24,Go Home,FALSE,FALSE,FALSE,FALSE,FALSE,FALSE,FALSE,FALSE,FALSE,FALSE,FALSE,FALSE,50.57727916,-111.8856619,1.5,2725.4,393.7,TRUE,1,1,FALSE,FALSE,FALSE,FALSE,,TRUE,FALSE,FALSE,Course Lock,393.7,86.5,16.4,7,,,,,Calm,FALSE,FALSE,,1.20.0,DJI Mini 2,,,,,236.4,6,223,36.811084,12.079476,0,0,DJI Mini 2,,,,,DJI Fly,,1.20.0,,,,,,,,,,,,
4/13/2026,29:17.7,0m 4.8s,4.8,50.57728184,-111.8856671,22.9,23.2,20.9,2490,2,0.223694,0.447388,0.223694,0.447388,0,0,3.35541,3.35541,6.5,2.2,10.9,10.9,217.2,Sport,Auto Fly,,28,5,TRUE,,Mini 2,TRUE,FALSE,,Smart,RC,FALSE,TRUE,FALSE,,,TRUE,,FALSE,FALSE,FALSE,FALSE,FALSE,FALSE,FALSE,FALSE,FALSE,FALSE,0,Follow Yaw,0,0,-24.5,335.5,FALSE,FALSE,FALSE,FALSE,FALSE,FALSE,,TRUE,Normal,100,100,1024,1024,364,1024,0,FALSE,FALSE,FALSE,FALSE,FALSE,0,FALSE,FALSE,FALSE,FALSE,59,7.726,1161,1978,7.557,FALSE,3.872,3.854,0.024,FALSE,FALSE,3.493,113.2,113.1,113.5,,1,2,,5,4510.4,1127.62,,Idle,,20,,10,,24,Go Home,FALSE,FALSE,FALSE,FALSE,FALSE,FALSE,FALSE,FALSE,FALSE,FALSE,FALSE,FALSE,50.57727916,-111.8856619,1.5,2725.4,393.7,TRUE,1,1,FALSE,FALSE,FALSE,FALSE,,TRUE,FALSE,FALSE,Course Lock,393.7,86.5,16.4,7,,,,,Calm,FALSE,FALSE,,1.20.0,DJI Mini 2,,,,,236.4,6,223,36.811084,12.079476,0,0,DJI Mini 2,,,,,DJI Fly,,1.20.0,,,,,,,,,,,,
4/13/2026,29:17.8,0m 4.9s,4.9,50.57728137,-111.8856671,22.3,23.2,20.6,2490,2.2,0,0.447388,0,0.447388,0,0,4.47388,4.47388,5.2,1.5,11,11,,Sport,Auto Fly,,28,5,TRUE,,Mini 2,TRUE,FALSE,,Smart,RC,FALSE,TRUE,FALSE,,,TRUE,,FALSE,FALSE,FALSE,FALSE,FALSE,FALSE,FALSE,FALSE,FALSE,FALSE,0,Follow Yaw,0,0,-24.5,335.5,FALSE,FALSE,FALSE,FALSE,FALSE,FALSE,,TRUE,Normal,100,100,1024,1024,364,1024,0,FALSE,FALSE,FALSE,FALSE,FALSE,0,FALSE,FALSE,FALSE,FALSE,59,7.726,1161,1978,7.557,FALSE,3.872,3.854,0.024,FALSE,FALSE,3.493,113.2,113.1,113.5,,1,2,,5,4510.4,1127.62,,Idle,,20,,10,,24,Go Home,FALSE,FALSE,FALSE,FALSE,FALSE,FALSE,FALSE,FALSE,FALSE,FALSE,FALSE,FALSE,50.57727916,-111.8856619,1.4,2725.4,393.7,TRUE,1,1,FALSE,FALSE,FALSE,FALSE,,TRUE,FALSE,FALSE,Course Lock,393.7,86.5,16.4,7,,,,,Calm,FALSE,FALSE,,1.20.0,DJI Mini 2,,,,,236.4,6,223,36.811084,12.079476,0,0,DJI Mini 2,,,,,DJI Fly,,1.20.0,,,,,,,,,,,,
4/13/2026,29:17.9,0m 5.0s,5,50.57728119,-111.8856673,21.6,23.2,20,2489,2.2,0,0.447388,0,0.447388,0,0,5.368656,5.368656,5.2,2.4,10.9,10.9,,Sport,Auto Fly,,28,5,TRUE,,Mini 2,TRUE,FALSE,,Smart,RC,FALSE,TRUE,FALSE,,,TRUE,,FALSE,FALSE,FALSE,FALSE,FALSE,FALSE,FALSE,FALSE,FALSE,FALSE,0,Follow Yaw,0,0,-24.5,335.5,FALSE,FALSE,FALSE,FALSE,FALSE,FALSE,,TRUE,Normal,100,100,1024,1024,656,1024,0,FALSE,FALSE,FALSE,FALSE,FALSE,0,FALSE,FALSE,FALSE,FALSE,59,7.726,1161,1978,7.557,FALSE,3.872,3.854,0.024,FALSE,FALSE,3.493,113.2,113.1,113.5,,1,2,,5,4510.4,1127.62,,Idle,,20,,10,,24,Go Home,FALSE,FALSE,FALSE,FALSE,FALSE,FALSE,FALSE,FALSE,FALSE,FALSE,FALSE,FALSE,50.57727916,-111.8856619,1.4,2725.4,393.7,TRUE,1,1,FALSE,FALSE,FALSE,FALSE,,TRUE,FALSE,FALSE,Course Lock,393.7,86.5,16.4,7,,,,,Calm,FALSE,FALSE,,1.20.0,DJI Mini 2,,,,,236.4,6,223,36.811084,12.079476,0,0,DJI Mini 2,,,,,DJI Fly,,1.20.0,,,,,,,,,,,,
4/13/2026,29:18.0,0m 5.1s,5.1,50.57728097,-111.8856675,20.6,23.2,19,2488,2.3,0,0.447388,0,0.447388,0,0,6.263432,6.263432,3.9,1.8,10.8,10.8,,Sport,Auto Fly,,28,5,TRUE,,Mini 2,TRUE,FALSE,,Smart,RC,FALSE,TRUE,FALSE,,,TRUE,,FALSE,FALSE,FALSE,FALSE,FALSE,FALSE,FALSE,FALSE,FALSE,FALSE,0,Follow Yaw,0,0,-24.5,335.5,FALSE,FALSE,FALSE,FALSE,FALSE,FALSE,,TRUE,Normal,100,100,1024,1024,1024,1024,0,FALSE,FALSE,FALSE,FALSE,FALSE,0,FALSE,FALSE,FALSE,FALSE,59,7.726,1161,1978,7.557,FALSE,3.872,3.854,0.024,FALSE,FALSE,3.493,113.2,113.1,113.5,,1,2,,5,4510.4,1127.62,,Idle,,20,,10,,24,Go Home,FALSE,FALSE,FALSE,FALSE,FALSE,FALSE,FALSE,FALSE,FALSE,FALSE,FALSE,FALSE,50.57727916,-111.8856619,1.4,2725.4,393.7,TRUE,1,1,FALSE,FALSE,FALSE,FALSE,,TRUE,FALSE,FALSE,Course Lock,393.7,86.5,16.4,7,,,,,Calm,FALSE,FALSE,,1.20.0,DJI Mini 2,,,,,236.4,6,223,36.811084,12.079476,0,0,DJI Mini 2,,,,,DJI Fly,,1.20.0,,,,,,,,,,,,
4/13/2026,29:18.1,0m 5.2s,5.2,50.57728052,-111.8856678,20,23.2,18,2487,2.5,0,0.447388,0,0.447388,0,0,6.487126,6.487126,1.2,2.1,10.9,10.9,,Sport,Auto Fly,,28,5,TRUE,,Mini 2,TRUE,FALSE,,Smart,RC,FALSE,TRUE,FALSE,,,TRUE,,FALSE,FALSE,FALSE,FALSE,FALSE,FALSE,FALSE,FALSE,FALSE,FALSE,0,Follow Yaw,0,0,-24.5,335.5,FALSE,FALSE,FALSE,FALSE,FALSE,FALSE,,TRUE,Normal,100,100,1024,1024,1024,1024,0,FALSE,FALSE,FALSE,FALSE,FALSE,0,FALSE,FALSE,FALSE,FALSE,59,7.726,1161,1978,7.557,FALSE,3.872,3.854,0.024,FALSE,FALSE,3.493,113.2,113.1,113.5,,1,2,,5,4510.4,1127.62,,Idle,,20,,10,,24,Go Home,FALSE,FALSE,FALSE,FALSE,FALSE,FALSE,FALSE,FALSE,FALSE,FALSE,FALSE,FALSE,50.57727916,-111.8856619,1.4,2725.4,393.7,TRUE,1,1,FALSE,FALSE,FALSE,FALSE,,TRUE,FALSE,FALSE,Course Lock,393.7,86.5,16.4,7,,,,,Calm,FALSE,FALSE,,1.20.0,DJI Mini 2,,,,,236.4,6,223,36.811084,12.079476,0,0,DJI Mini 2,,,,,DJI Fly,,1.20.0,,,,,,,,,,,,
4/13/2026,29:18.2,0m 5.3s,5.3,50.57728003,-111.885668,19.3,23.2,17,2487,2.7,0,0.447388,0,0.447388,0,0,6.039738,6.487126,3.4,0,10.7,10.7,,Sport,Auto Fly,,28,5,TRUE,,Mini 2,TRUE,FALSE,,Smart,RC,FALSE,TRUE,FALSE,,,TRUE,,FALSE,FALSE,FALSE,FALSE,FALSE,FALSE,FALSE,FALSE,FALSE,FALSE,0,Follow Yaw,0,0,-24.5,335.5,FALSE,FALSE,FALSE,FALSE,FALSE,FALSE,,TRUE,Normal,100,100,1024,1024,877,1024,0,FALSE,FALSE,FALSE,FALSE,FALSE,0,FALSE,FALSE,FALSE,FALSE,59,7.726,1161,1978,7.622,FALSE,3.872,3.854,0.024,FALSE,FALSE,3.493,113.2,113.1,113.5,,2,1,,5,7163.3,1790.83,,Idle,,20,,10,,24,Go Home,FALSE,FALSE,FALSE,FALSE,FALSE,FALSE,FALSE,FALSE,FALSE,FALSE,FALSE,FALSE,50.57727916,-111.8856619,1.4,2725.4,393.7,TRUE,1,1,FALSE,FALSE,FALSE,FALSE,,TRUE,FALSE,FALSE,Course Lock,393.7,86.5,16.4,7,,,,,Calm,FALSE,FALSE,,1.20.0,DJI Mini 2,,,,,236.4,6,223,36.811084,12.079476,0,0,DJI Mini 2,,,,,DJI Fly,,1.20.0,,,,,,,,,,,,
4/13/2026,29:18.3,0m 5.4s,5.4,50.57727905,-111.8856685,19,23.2,16.4,2486,3.1,0.223694,0.447388,-0.223694,0.447388,0,0,4.921268,6.487126,0,3.9,10.9,10.9,195.9,Sport,Auto Fly,,28,5,TRUE,,Mini 2,TRUE,FALSE,,Smart,RC,FALSE,TRUE,FALSE,,,TRUE,,FALSE,FALSE,FALSE,FALSE,FALSE,FALSE,FALSE,FALSE,FALSE,FALSE,0,Follow Yaw,0,0,-24.5,335.5,FALSE,FALSE,FALSE,FALSE,FALSE,FALSE,,TRUE,Normal,100,100,1024,1024,1024,1024,0,FALSE,FALSE,FALSE,FALSE,FALSE,0,FALSE,FALSE,FALSE,FALSE,59,7.726,1161,1978,7.622,FALSE,3.872,3.854,0.024,FALSE,FALSE,3.493,113.2,113.1,113.5,,2,1,,5,7163.3,1790.83,,Idle,,20,,10,,24,Go Home,FALSE,FALSE,FALSE,FALSE,FALSE,FALSE,FALSE,FALSE,FALSE,FALSE,FALSE,FALSE,50.57727916,-111.8856619,1.5,2725.4,393.7,TRUE,1,1,FALSE,FALSE,FALSE,FALSE,,TRUE,FALSE,FALSE,Course Lock,393.7,86.5,16.4,7,,,,,Calm,FALSE,FALSE,,1.20.0,DJI Mini 2,,,,,236.4,6,223,36.811084,12.079476,0,0,DJI Mini 2,,,,,DJI Fly,,1.20.0,,,,,,,,,,,,
4/13/2026,29:18.4,0m 5.5s,5.5,50.57727865,-111.8856688,18.3,23.2,15.7,2486,3.2,0.223694,0.447388,-0.223694,0.447388,0,0,3.802798,6.487126,0.4,4.6,10.9,10.9,205.6,Sport,Auto Fly,,28,5,TRUE,,Mini 2,TRUE,FALSE,,Smart,RC,FALSE,TRUE,FALSE,,,TRUE,,FALSE,FALSE,FALSE,FALSE,FALSE,FALSE,FALSE,FALSE,FALSE,FALSE,0,Follow Yaw,0,0,-24.5,335.5,FALSE,FALSE,FALSE,FALSE,FALSE,FALSE,,TRUE,Normal,100,100,1024,1024,1024,1024,0,FALSE,FALSE,FALSE,FALSE,FALSE,0,FALSE,FALSE,FALSE,FALSE,59,7.726,1161,1978,7.622,FALSE,3.872,3.854,0.024,FALSE,FALSE,3.493,113.2,113.1,113.5,,2,1,,5,7163.3,1790.83,,Idle,,20,,10,,24,Go Home,FALSE,FALSE,FALSE,FALSE,FALSE,FALSE,FALSE,FALSE,FALSE,FALSE,FALSE,FALSE,50.57727916,-111.8856619,1.6,2725.4,393.7,TRUE,1,1,FALSE,FALSE,FALSE,FALSE,,TRUE,FALSE,FALSE,Course Lock,393.7,86.5,16.4,7,,,,,Calm,FALSE,FALSE,,1.20.0,DJI Mini 2,,,,,236.4,6,223,36.811084,12.079476,0,0,DJI Mini 2,,,,,DJI Fly,,1.20.0,,,,,,,,,,,,
4/13/2026,29:18.5,0m 5.6s,5.6,50.57727827,-111.885669,18,23.2,15.4,2485,3.4,0.223694,0.447388,-0.223694,0.447388,0,0,2.684328,6.487126,0.9,3.8,10.6,10.6,195.6,Sport,Auto Fly,,28,5,TRUE,,Mini 2,TRUE,FALSE,,Smart,RC,FALSE,TRUE,FALSE,,,TRUE,,FALSE,FALSE,FALSE,FALSE,FALSE,FALSE,FALSE,FALSE,FALSE,FALSE,0,Follow Yaw,0,0,-24.5,335.5,FALSE,FALSE,FALSE,FALSE,FALSE,FALSE,,TRUE,Normal,100,100,1024,1024,1024,1024,0,FALSE,FALSE,FALSE,FALSE,FALSE,0,FALSE,FALSE,FALSE,FALSE,59,7.726,1161,1978,7.622,FALSE,3.872,3.854,0.024,FALSE,FALSE,3.493,113.2,113.1,113.5,,2,1,,5,7163.3,1790.83,,Idle,,20,,10,,24,Go Home,FALSE,FALSE,FALSE,FALSE,FALSE,FALSE,FALSE,FALSE,FALSE,FALSE,FALSE,FALSE,50.57727916,-111.8856619,1.6,2725.4,393.7,TRUE,1,1,FALSE,FALSE,FALSE,FALSE,,TRUE,FALSE,FALSE,Course Lock,393.7,86.5,16.4,7,,,,,Calm,FALSE,FALSE,,1.20.0,DJI Mini 2,,,,,236.4,6,223,36.811084,12.079476,0,0,DJI Mini 2,,,,,DJI Fly,,1.20.0,,,,,,,,,,,,
4/13/2026,29:18.6,0m 5.7s,5.7,50.57727785,-111.8856691,18,23.2,15,2485,3.5,0.223694,0.447388,-0.223694,0.447388,0,0,1.342164,6.487126,0.3,2.6,10.3,10.3,189.3,Sport,Auto Fly,,28,5,TRUE,,Mini 2,TRUE,FALSE,,Smart,RC,FALSE,TRUE,FALSE,,,TRUE,,FALSE,FALSE,FALSE,FALSE,FALSE,FALSE,FALSE,FALSE,FALSE,FALSE,0,Follow Yaw,0,0,-24.5,335.5,FALSE,FALSE,FALSE,FALSE,FALSE,FALSE,,TRUE,Normal,100,100,1024,1024,1024,1024,0,FALSE,FALSE,FALSE,FALSE,FALSE,0,FALSE,FALSE,FALSE,FALSE,59,7.726,1161,1978,7.622,FALSE,3.872,3.854,0.024,FALSE,FALSE,3.493,113.2,113.1,113.5,,2,1,,5,7163.3,1790.83,,Idle,,20,,10,,24,Go Home,FALSE,FALSE,FALSE,FALSE,FALSE,FALSE,FALSE,FALSE,FALSE,FALSE,FALSE,FALSE,50.57727916,-111.8856619,1.7,2725.4,393.7,TRUE,1,1,FALSE,FALSE,FALSE,FALSE,,TRUE,FALSE,FALSE,Course Lock,393.7,86.5,16.4,7,,,,,Calm,FALSE,FALSE,,1.20.0,DJI Mini 2,,,,,236.4,6,223,36.811084,12.079476,0,0,DJI Mini 2,,,,,DJI Fly,,1.20.0,,,,,,,,,,,,
4/13/2026,29:18.7,0m 5.8s,5.8,50.5772777,-111.8856691,17.7,23.2,15,2485,3.6,0.447388,0.447388,-0.447388,0.447388,0,0,0.671082,6.487126,-0.4,2.1,10.4,10.4,188.5,Sport,Auto Fly,,28,5,TRUE,,Mini 2,TRUE,FALSE,,Smart,RC,FALSE,TRUE,FALSE,,,TRUE,,FALSE,FALSE,FALSE,FALSE,FALSE,FALSE,FALSE,FALSE,FALSE,FALSE,0,Follow Yaw,0,0,-24.5,335.5,FALSE,FALSE,FALSE,FALSE,FALSE,FALSE,,TRUE,Normal,100,100,1024,1024,417,1024,0,FALSE,FALSE,FALSE,FALSE,FALSE,0,FALSE,FALSE,FALSE,FALSE,59,7.57,1160,1978,7.622,FALSE,3.8,3.77,0.03,FALSE,FALSE,2.913,113.2,113.1,113.5,,2,1,,5,7163.3,1790.83,,Idle,,20,,10,,24,Go Home,FALSE,FALSE,FALSE,FALSE,FALSE,FALSE,FALSE,FALSE,FALSE,FALSE,FALSE,FALSE,50.57727916,-111.8856619,1.7,2725.4,393.7,TRUE,1,1,FALSE,FALSE,FALSE,FALSE,,TRUE,FALSE,FALSE,Course Lock,393.7,86.5,16.4,7,,,,,Calm,FALSE,FALSE,,1.20.0,DJI Mini 2,,,,,236.4,6,223,36.811084,12.079476,0,0,DJI Mini 2,,,,,DJI Fly,,1.20.0,,,,,,,,,,,,
4/13/2026,29:18.8,0m 5.9s,5.9,50.57727742,-111.8856691,17.7,23.2,14.7,2485,3.7,0.316351,0.447388,-0.223694,0.447388,0.223694,0.223694,0.447388,6.487126,-0.6,2,10.5,10.5,183.6,Sport,Auto Fly,,27,5,TRUE,,Mini 2,TRUE,FALSE,,Smart,RC,FALSE,TRUE,FALSE,,,TRUE,,FALSE,FALSE,FALSE,FALSE,FALSE,FALSE,FALSE,FALSE,FALSE,FALSE,0,Follow Yaw,0,0,-24.5,335.5,FALSE,FALSE,FALSE,FALSE,FALSE,FALSE,,TRUE,Normal,100,100,1024,1024,364,1024,0,FALSE,FALSE,FALSE,FALSE,FALSE,0,FALSE,FALSE,FALSE,FALSE,59,7.57,1160,1978,7.622,FALSE,3.8,3.77,0.03,FALSE,FALSE,2.913,113.2,113.1,113.5,,2,1,,5,7163.3,1790.83,,Idle,,20,,10,,24,Go Home,FALSE,FALSE,FALSE,FALSE,FALSE,FALSE,FALSE,FALSE,FALSE,FALSE,FALSE,FALSE,50.57727916,-111.8856619,1.7,2725.4,393.7,TRUE,1,1,FALSE,FALSE,FALSE,FALSE,,TRUE,FALSE,FALSE,Course Lock,393.7,86.5,16.4,7,,,,,Calm,FALSE,FALSE,,1.20.0,DJI Mini 2,,,,,236.4,6,223,36.811084,12.079476,0,0,DJI Mini 2,,,,,DJI Fly,,1.20.0,,,,,,,,,,,,
4/13/2026,29:18.9,0m 6.0s,6,50.57727731,-111.8856691,17.3,23.2,14.7,2485,3.7,0.316351,0.447388,-0.223694,0.447388,0.223694,0.223694,0.894776,6.487126,-0.2,2.1,10.7,10.7,177,Sport,Auto Fly,,27,5,TRUE,,Mini 2,TRUE,FALSE,,Smart,RC,FALSE,TRUE,FALSE,,,TRUE,,FALSE,FALSE,FALSE,FALSE,FALSE,FALSE,FALSE,FALSE,FALSE,FALSE,0,Follow Yaw,0,0,-24.5,335.5,FALSE,FALSE,FALSE,FALSE,FALSE,FALSE,,TRUE,Normal,100,100,1024,1024,364,1024,0,FALSE,FALSE,FALSE,FALSE,FALSE,0,FALSE,FALSE,FALSE,FALSE,59,7.57,1160,1978,7.622,FALSE,3.8,3.77,0.03,FALSE,FALSE,2.913,113.2,113.1,113.5,,2,1,,5,7163.3,1790.83,,Idle,,20,,10,,24,Go Home,FALSE,FALSE,FALSE,FALSE,FALSE,FALSE,FALSE,FALSE,FALSE,FALSE,FALSE,FALSE,50.57727916,-111.8856619,1.7,2725.4,393.7,TRUE,1,1,FALSE,FALSE,FALSE,FALSE,,TRUE,FALSE,FALSE,Course Lock,393.7,86.5,16.4,7,,,,,Calm,FALSE,FALSE,,1.20.0,DJI Mini 2,,,,,236.4,6,223,36.811084,12.079476,0,0,DJI Mini 2,,,,,DJI Fly,,1.20.0,,,,,,,,,,,,
4/13/2026,29:19.0,0m 6.1s,6.1,50.5772772,-111.8856691,17,23.2,14.4,2484,3.8,0.316351,0.447388,-0.223694,0.447388,0.223694,0.223694,1.789552,6.487126,0,1,10.7,10.7,178.6,Sport,Auto Fly,,28,5,TRUE,,Mini 2,TRUE,FALSE,,Smart,RC,FALSE,TRUE,FALSE,,,TRUE,,FALSE,FALSE,FALSE,FALSE,FALSE,FALSE,FALSE,FALSE,FALSE,FALSE,0,Follow Yaw,0,0,-24.5,335.5,FALSE,FALSE,FALSE,FALSE,FALSE,FALSE,,TRUE,Normal,100,100,1024,885,510,1024,0,FALSE,FALSE,FALSE,FALSE,FALSE,0,FALSE,FALSE,FALSE,FALSE,59,7.57,1160,1978,7.622,FALSE,3.8,3.77,0.03,FALSE,FALSE,2.913,113.2,113.1,113.5,,2,1,,5,7163.3,1790.83,,Idle,,20,,10,,24,Go Home,FALSE,FALSE,FALSE,FALSE,FALSE,FALSE,FALSE,FALSE,FALSE,FALSE,FALSE,FALSE,50.57727916,-111.8856619,1.8,2725.4,393.7,TRUE,1,1,FALSE,FALSE,FALSE,FALSE,,TRUE,FALSE,FALSE,Course Lock,393.7,86.5,16.4,7,,,,,Calm,FALSE,FALSE,,1.20.0,DJI Mini 2,,,,,236.4,6,223,36.811084,12.079476,0,0,DJI Mini 2,,,,,DJI Fly,,1.20.0,,,,,,,,,,,,
4/13/2026,29:19.1,0m 6.2s,6.2,50.57727772,-111.8856688,16.7,23.2,14.1,2484,4,0.447388,0.447388,-0.447388,0.447388,0,0.223694,2.908022,6.487126,-0.9,-0.1,10.8,10.8,19.1,Sport,Auto Fly,,28,5,TRUE,,Mini 2,TRUE,FALSE,,Smart,RC,FALSE,TRUE,FALSE,,,TRUE,,FALSE,FALSE,FALSE,FALSE,FALSE,FALSE,FALSE,FALSE,FALSE,FALSE,0,Follow Yaw,0,0,-24.5,335.5,FALSE,FALSE,FALSE,FALSE,FALSE,FALSE,,TRUE,Normal,100,100,1024,498,1024,1024,0,FALSE,FALSE,FALSE,FALSE,FALSE,0,FALSE,FALSE,FALSE,FALSE,59,7.57,1160,1978,7.622,FALSE,3.8,3.77,0.03,FALSE,FALSE,2.913,113.2,113.1,113.5,,2,1,,5,7163.3,1790.83,,Idle,,20,,10,,24,Go Home,FALSE,FALSE,FALSE,FALSE,FALSE,FALSE,FALSE,FALSE,FALSE,FALSE,FALSE,FALSE,50.57727916,-111.8856619,1.6,2725.4,393.7,TRUE,1,1,FALSE,FALSE,FALSE,FALSE,,TRUE,FALSE,FALSE,Course Lock,393.7,86.5,16.4,7,,,,,Calm,FALSE,FALSE,,1.20.0,DJI Mini 2,,,,,236.4,6,223,36.811084,12.079476,0,0,DJI Mini 2,,,,,DJI Fly,,1.20.0,,,,,,,,,,,,
